,Country Code,Country Name,Power Plant Name,Power Plant Capacity(MWh),Latitude,Longitude,Primary Fuel,GNI,Population,Country Status
0,AFG,Afghanistan,Kajaki Hydroelectric Power Plant Afghanistan,33.0,32.322,65.119,Hydro,500.0,38928341.0,Developing
1,AFG,Afghanistan,Kandahar DOG,10.0,31.67,65.795,Solar,500.0,38928341.0,Developing
2,AFG,Afghanistan,Kandahar JOL,10.0,31.623,65.792,Solar,500.0,38928341.0,Developing
3,AFG,Afghanistan,Mahipar Hydroelectric Power Plant Afghanistan,66.0,34.556,69.4787,Hydro,500.0,38928341.0,Developing
4,AFG,Afghanistan,Naghlu Dam Hydroelectric Power Plant Afghanistan,100.0,34.641,69.717,Hydro,500.0,38928341.0,Developing
5,AFG,Afghanistan,Nangarhar (Darunta) Hydroelectric Power Plant Afghanistan,11.55,34.4847,70.3633,Hydro,500.0,38928341.0,Developing
6,AFG,Afghanistan,Northwest Kabul Power Plant Afghanistan,42.0,34.5638,69.1134,Gas,500.0,38928341.0,Developing
7,AFG,Afghanistan,Pul-e-Khumri Hydroelectric Power Plant Afghanistan,6.0,35.9416,68.71,Hydro,500.0,38928341.0,Developing
8,AFG,Afghanistan,Sarobi Dam Hydroelectric Power Plant Afghanistan,22.0,34.5865,69.7757,Hydro,500.0,38928341.0,Developing
9,ALB,Albania,Bistrica 1,27.0,39.9116,20.1047,Hydro,5210.0,2837743.0,Developing
10,ALB,Albania,Fierza,500.0,42.2514,20.0431,Hydro,5210.0,2837743.0,Developing
11,ALB,Albania,Koman,600.0,42.1033,19.8224,Hydro,5210.0,2837743.0,Developing
12,ALB,Albania,Lanabregas,5.0,41.3428,19.8964,Hydro,5210.0,2837743.0,Developing
13,ALB,Albania,Shkopet,24.0,41.6796,19.8305,Hydro,5210.0,2837743.0,Developing
14,ALB,Albania,Ulez,25.0,41.6796,19.8936,Hydro,5210.0,2837743.0,Developing
15,ALB,Albania,Vau i Dijes,250.0,42.0137,19.6359,Hydro,5210.0,2837743.0,Developing
16,ALB,Albania,Vlora,98.0,40.4874,19.434,Other,5210.0,2837743.0,Developing
17,DZA,Algeria,Adrar,20.0,27.908,-0.317,Solar,3570.0,43851043.0,Developing
18,DZA,Algeria,Ain Azel,20.0,35.88,5.475,Solar,3570.0,43851043.0,Developing
19,DZA,Algeria,Ain Djasser,520.0,35.8665,6.0262,Gas,3570.0,43851043.0,Developing
20,DZA,Algeria,Ain Sekhouna,20.0,34.532,0.804,Solar,3570.0,43851043.0,Developing
21,DZA,Algeria,Ain el Ibel I,20.0,34.346,3.164,Solar,3570.0,43851043.0,Developing
22,DZA,Algeria,Ain el Ibel II,53.0,34.342,3.169,Solar,3570.0,43851043.0,Developing
23,DZA,Algeria,Ain el Melh,20.0,34.861,4.204,Solar,3570.0,43851043.0,Developing
24,DZA,Algeria,Algerie Sud-Ouest,43.5,27.908,-0.317,Solar,3570.0,43851043.0,Developing
25,DZA,Algeria,Annaba,71.0,36.8924,7.7634,Gas,3570.0,43851043.0,Developing
26,DZA,Algeria,Aoulef,5.0,26.9989,1.3351,Solar,3570.0,43851043.0,Developing
27,DZA,Algeria,Arbaa,560.0,36.5988,3.1375,Gas,3570.0,43851043.0,Developing
28,DZA,Algeria,Bir Rebaa,10.0,31.285,8.565,Solar,3570.0,43851043.0,Developing
29,DZA,Algeria,Boufarik 1,100.0,36.5914,2.9223,Gas,3570.0,43851043.0,Developing
30,DZA,Algeria,Boufarik 2,450.0,36.596,2.878,Gas,3570.0,43851043.0,Developing
31,DZA,Algeria,Boutelilis,450.0,35.5658,-0.9386,Gas,3570.0,43851043.0,Developing
32,DZA,Algeria,Chelghoum El Aïd,15.0,36.225,6.11,Solar,3570.0,43851043.0,Developing
33,DZA,Algeria,El Kheneg,60.0,33.727,2.811,Solar,3570.0,43851043.0,Developing
34,DZA,Algeria,F'Krina,292.0,35.7666,7.3619,Gas,3570.0,43851043.0,Developing
35,DZA,Algeria,HPC Ouargla,30.0,32.602,5.834,Solar,3570.0,43851043.0,Developing
36,DZA,Algeria,Hadjret Ennous,1200.0,36.5767,2.0797,Gas,3570.0,43851043.0,Developing
37,DZA,Algeria,Hamma 2,418.0,36.7489,3.0823,Gas,3570.0,43851043.0,Developing
38,DZA,Algeria,Hassi Messaoud Mobile,72.0,31.6703,6.0531,Gas,3570.0,43851043.0,Developing
39,DZA,Algeria,Hassi Messoud,600.0,31.6703,6.0531,Gas,3570.0,43851043.0,Developing
40,DZA,Algeria,Hassi Messoud Nord 2,200.0,31.7877,6.0517,Gas,3570.0,43851043.0,Developing
41,DZA,Algeria,Hassi Messoud Ouest,492.0,31.8065,5.9924,Gas,3570.0,43851043.0,Developing
42,DZA,Algeria,Hassi R'mel ISCC,20.0,33.123,3.356,Solar,3570.0,43851043.0,Developing
43,DZA,Algeria,Hauts Plateaux Centre,106.6,34.342,3.169,Solar,3570.0,43851043.0,Developing
44,DZA,Algeria,Hauts Plateaux Est,73.8,35.68,5.9861,Solar,3570.0,43851043.0,Developing
45,DZA,Algeria,Ighil Emda,24.0,36.4739,5.2719,Hydro,3570.0,43851043.0,Developing
46,DZA,Algeria,In Salah,5.0,27.183,2.504,Solar,3570.0,43851043.0,Developing
47,DZA,Algeria,Jijel,588.0,36.8139,5.876,Gas,3570.0,43851043.0,Developing
48,DZA,Algeria,Kahrama IPP,345.0,35.8064,-0.2476,Gas,3570.0,43851043.0,Developing
49,DZA,Algeria,Koudiet Eddraouch,1200.0,36.885,8.0778,Gas,3570.0,43851043.0,Developing
50,DZA,Algeria,Labiodh Sidi Cheikh,20.0,32.945,0.555,Solar,3570.0,43851043.0,Developing
51,DZA,Algeria,Labreg,396.0,34.5056,6.9848,Gas,3570.0,43851043.0,Developing
52,DZA,Algeria,Marsat,840.0,35.8,-0.1924,Gas,3570.0,43851043.0,Developing
53,DZA,Algeria,Marsat TG,184.0,35.8,-0.1924,Gas,3570.0,43851043.0,Developing
54,DZA,Algeria,Msila 1,980.0,35.7071,4.4804,Gas,3570.0,43851043.0,Developing
55,DZA,Algeria,Naâma,19.9,33.274,-0.372,Solar,3570.0,43851043.0,Developing
56,DZA,Algeria,Oued El Kebrit,15.0,35.919,7.87,Solar,3570.0,43851043.0,Developing
57,DZA,Algeria,Oued el Ma,20.0,35.68,5.9861,Solar,3570.0,43851043.0,Developing
58,DZA,Algeria,Ras Djinet,672.0,36.8509,3.6983,Gas,3570.0,43851043.0,Developing
59,DZA,Algeria,Ras el Oued,20.0,36.01,5.035,Solar,3570.0,43851043.0,Developing
60,DZA,Algeria,Ravin Blanc,73.0,35.7095,-0.6319,Gas,3570.0,43851043.0,Developing
61,DZA,Algeria,Reggane,5.0,26.768,0.137,Solar,3570.0,43851043.0,Developing
62,DZA,Algeria,Relizane,465.0,35.7835,0.5407,Gas,3570.0,43851043.0,Developing
63,DZA,Algeria,SKB IPP,484.0,36.1399,2.9296,Gas,3570.0,43851043.0,Developing
64,DZA,Algeria,SKS IPP SNC Lavalin,815.0,36.8789,6.9366,Gas,3570.0,43851043.0,Developing
65,DZA,Algeria,SPP1 Thermal,150.0,32.9475,3.238,Gas,3570.0,43851043.0,Developing
66,DZA,Algeria,Skikda,262.0,36.88,6.935,Gas,3570.0,43851043.0,Developing
67,DZA,Algeria,Tamanrasset,13.0,22.849,5.45,Solar,3570.0,43851043.0,Developing
68,DZA,Algeria,Terga,1200.0,35.4608,-1.2295,Gas,3570.0,43851043.0,Developing
69,DZA,Algeria,Tiaret,300.0,35.3396,1.3562,Gas,3570.0,43851043.0,Developing
70,DZA,Algeria,Tilghemt 1,200.0,33.1319,3.348,Gas,3570.0,43851043.0,Developing
71,DZA,Algeria,Tilghemt 2,600.0,33.1377,3.3678,Gas,3570.0,43851043.0,Developing
72,DZA,Algeria,Timimoun,9.0,29.22,0.223,Solar,3570.0,43851043.0,Developing
73,DZA,Algeria,Tindouf,9.0,27.752,-8.154,Solar,3570.0,43851043.0,Developing
74,DZA,Algeria,Télagh,12.0,34.692,-0.601,Solar,3570.0,43851043.0,Developing
75,DZA,Algeria,Zaouiet Kounta,6.0,27.241,-0.174,Solar,3570.0,43851043.0,Developing
76,AGO,Angola,Biopio,22.8,-12.4706,13.7319,Oil,2140.0,32866268.0,Developing
77,AGO,Angola,Biopio (hydro),14.6,-12.4706,13.7319,Hydro,2140.0,32866268.0,Developing
78,AGO,Angola,Cambambe,180.0,-9.7523,14.4809,Hydro,2140.0,32866268.0,Developing
79,AGO,Angola,Capanda,520.0,-9.7955,15.4672,Hydro,2140.0,32866268.0,Developing
80,AGO,Angola,Cazenga,132.0,-8.8383,13.2344,Gas,2140.0,32866268.0,Developing
81,AGO,Angola,Huambo,16.26,-12.76,15.75,Oil,2140.0,32866268.0,Developing
82,AGO,Angola,Lobito,20.0,-12.37,13.57,Gas,2140.0,32866268.0,Developing
83,AGO,Angola,Luanda Diesel,58.0,-8.8383,13.2344,Oil,2140.0,32866268.0,Developing
84,AGO,Angola,Luanda Refinery,18.5,-8.8383,13.2344,Oil,2140.0,32866268.0,Developing
85,AGO,Angola,Malongo,10.0,-5.55,12.2,Oil,2140.0,32866268.0,Developing
86,AGO,Angola,Matala,40.0,-14.7333,15.0333,Hydro,2140.0,32866268.0,Developing
87,AGO,Angola,Namibe,11.68,-15.1961,12.1522,Gas,2140.0,32866268.0,Developing
88,AGO,Angola,Rio Luachimo,16.0,-7.3,20.85,Hydro,2140.0,32866268.0,Developing
89,AGO,Angola,Xitoto,11.34,-15.3333,15.0,Oil,2140.0,32866268.0,Developing
90,ATA,Antarctica,McMurdo Station Generator,6.6,-77.847,166.6605,Oil,,,
91,ATA,Antarctica,Ross Island,1.0,-77.8428,166.7271,Wind,,,
92,ARG,Argentina,AGUA DEL CAJON (AUTOGENERADOR DEL MEM),479.2,-38.9368,-68.3556,Other,9070.0,45376763.0,Developing
93,ARG,Argentina,AGUA DEL CAJON (GENERADOR DEL MEM),192.0,-38.9368,-68.3556,Gas,9070.0,45376763.0,Developing
94,ARG,Argentina,AGUA DEL TORO,130.0,-34.5792,-68.9892,Hydro,9070.0,45376763.0,Developing
95,ARG,Argentina,ALICURA,1050.0,-40.58,-70.7489,Hydro,9070.0,45376763.0,Developing
96,ARG,Argentina,ALMIRANTE BROWN,25.0,-34.8386,-58.4033,Oil,9070.0,45376763.0,Developing
97,ARG,Argentina,ALTO VALLE,97.5,-38.9524,-68.0218,Gas,9070.0,45376763.0,Developing
98,ARG,Argentina,ALUMINE,1.9040000000000001,-39.2145,-70.9157,Oil,9070.0,45376763.0,Developing
99,ARG,Argentina,ALVAREZ CONDARCO,50.7,-33.0452,-69.0516,Hydro,9070.0,45376763.0,Developing
100,ARG,Argentina,ARROYITO,128.0,-39.1009,-68.5982,Hydro,9070.0,45376763.0,Developing
101,ARG,Argentina,ATUCHA I,370.0,-33.967,-59.2059,Nuclear,9070.0,45376763.0,Developing
102,ARG,Argentina,ATUCHA II,745.0,-33.9674,-59.2045,Nuclear,9070.0,45376763.0,Developing
103,ARG,Argentina,BANDERA,31.0,-23.8219,-64.7847,Oil,9070.0,45376763.0,Developing
104,ARG,Argentina,BARILOCHE (PUERTO  MORENO),5.7360000000000015,-41.1167,-71.4167,Oil,9070.0,45376763.0,Developing
105,ARG,Argentina,BENJAMIN REOLIN,38.4,-32.1883,-64.3233,Hydro,9070.0,45376763.0,Developing
106,ARG,Argentina,BERNARDO  DE IRIGOYEN,2.096,-26.2545,-53.6469,Oil,9070.0,45376763.0,Developing
107,ARG,Argentina,C.T. RUFINO,31.9,-34.2605,-62.7107,Oil,9070.0,45376763.0,Developing
108,ARG,Argentina,C.T. SAN VICENTE,27.6,-35.0241,-58.4237,Oil,9070.0,45376763.0,Developing
109,ARG,Argentina,CAA CATI,1.415,-27.7534,-57.6205,Oil,9070.0,45376763.0,Developing
110,ARG,Argentina,CABRA CORRAL,102.0,-25.2712,-65.3298,Hydro,9070.0,45376763.0,Developing
111,ARG,Argentina,CACHEUTA (NUEVA),120.0,-33.0291,-69.1109,Hydro,9070.0,45376763.0,Developing
112,ARG,Argentina,CACHI,1.07,-25.1089,-66.2106,Oil,9070.0,45376763.0,Developing
113,ARG,Argentina,CAFAYATE,4.1819999999999995,-26.0715,-65.9876,Oil,9070.0,45376763.0,Developing
114,ARG,Argentina,CAPITAL CATAMARCA - PREDIO CHOYA,5.728,-28.4537,-65.7841,Oil,9070.0,45376763.0,Developing
115,ARG,Argentina,CAPITAL CATAMARCA - PREDIO EX CARCEL,7.075,-28.4773,-65.7872,Oil,9070.0,45376763.0,Developing
116,ARG,Argentina,CAPITAL CATAMARCA - PREDIO RIPIERA,4.675,-28.4684,-65.7797,Oil,9070.0,45376763.0,Developing
117,ARG,Argentina,CASA DE PIEDRA,60.0,-38.2143,-67.1908,Hydro,9070.0,45376763.0,Developing
118,ARG,Argentina,CASSAFFOUSTH,17.28,-31.3992,-64.2006,Hydro,9070.0,45376763.0,Developing
119,ARG,Argentina,CENTRAL BAHIA BLANCA (PIEDRA BUENA) SA,620.0,-38.7872,-62.2536,Coal,9070.0,45376763.0,Developing
120,ARG,Argentina,CENTRAL LOMA DE LA LATA SA,540.0,-38.5127,-68.6048,Gas,9070.0,45376763.0,Developing
121,ARG,Argentina,CENTRAL PARQUE INDUSTRIAL LA BANDA,11.228,-38.062,-67.9463,Oil,9070.0,45376763.0,Developing
122,ARG,Argentina,CENTRAL T.GENELBA,673.6,-34.9027,-58.7334,Gas,9070.0,45376763.0,Developing
123,ARG,Argentina,CENTRAL T.GENELBA PLUS,164.55,-34.9027,-58.7334,Gas,9070.0,45376763.0,Developing
124,ARG,Argentina,CENTRAL TERMICA BRIGADIER LOPEZ (ENARSA),280.0,-31.7112,-60.7811,Gas,9070.0,45376763.0,Developing
125,ARG,Argentina,CENTRAL TERMICA DE CICLO COMBINADO SALTA,643.0,-24.7456,-65.0513,Gas,9070.0,45376763.0,Developing
126,ARG,Argentina,CENTRAL TERMICA GÜEMES SA,361.0,-24.6894,-65.0425,Coal,9070.0,45376763.0,Developing
127,ARG,Argentina,CENTRAL TERMICA LA BANDA,32.0,-27.7528,-64.2655,Gas,9070.0,45376763.0,Developing
128,ARG,Argentina,CENTRAL TERMICA PIQUIRENDA SA,30.44,-22.3497,-63.7664,Oil,9070.0,45376763.0,Developing
129,ARG,Argentina,CENTRAL TERMICA REMEDIOS DE ESCALADA,25.0,-34.7208,-58.3881,Oil,9070.0,45376763.0,Developing
130,ARG,Argentina,CENTRAL TERMOELECTRICA GUILLERMO BROWN,524.0,-34.6268,-58.5438,Gas,9070.0,45376763.0,Developing
131,ARG,Argentina,CENTRAL TERMOELECTRICA MANUEL BELGRANO,868.2,-24.6894,-65.0425,Gas,9070.0,45376763.0,Developing
132,ARG,Argentina,CENTRAL TERMOELECTRICA TIMBUES,865.1400000000001,-32.5778,-60.791,Gas,9070.0,45376763.0,Developing
133,ARG,Argentina,CH LOS CARACOLES,121.4,-31.5192,-68.9814,Hydro,9070.0,45376763.0,Developing
134,ARG,Argentina,CHILECITO,5.0,-29.1578,-67.5069,Oil,9070.0,45376763.0,Developing
135,ARG,Argentina,CHIMBERA 1,2.0,-31.9881,-68.5402,Solar,9070.0,45376763.0,Developing
136,ARG,Argentina,CIPOLLETTI,5.78,-38.9121,-67.9427,Hydro,9070.0,45376763.0,Developing
137,ARG,Argentina,COMANDANTE ANDRESITO,2.372,-25.6669,-54.0419,Oil,9070.0,45376763.0,Developing
138,ARG,Argentina,COMODORO RIVADAVIA,141.02,-25.9913,-54.6278,Gas,9070.0,45376763.0,Developing
139,ARG,Argentina,COMODORO RIVADAVIA - ANTONIO MORAN,16.56,-45.8467,-67.4964,Wind,9070.0,45376763.0,Developing
140,ARG,Argentina,CORRIENTES,1.4,-27.4708,-58.8042,Oil,9070.0,45376763.0,Developing
141,ARG,Argentina,COSTANERA,1982.2,-34.626,-58.3393,Coal,9070.0,45376763.0,Developing
142,ARG,Argentina,CRUZ DE PIEDRA,17.94,-33.0349,-68.7971,Gas,9070.0,45376763.0,Developing
143,ARG,Argentina,CRUZ DEL EJE,5.052,-30.7636,-64.7538,Oil,9070.0,45376763.0,Developing
144,ARG,Argentina,CT 13 DE JULIO,26.0,-32.1613,-64.1537,Gas,9070.0,45376763.0,Developing
145,ARG,Argentina,CT ALEM,15.0,-43.0907,-65.2298,Oil,9070.0,45376763.0,Developing
146,ARG,Argentina,CT ALUMINE,6.3,-38.8706,-70.5753,Oil,9070.0,45376763.0,Developing
147,ARG,Argentina,CT ARISTOBULO DEL VALLE,15.0,-27.0922,-54.8625,Oil,9070.0,45376763.0,Developing
148,ARG,Argentina,CT ARRECIFES,20.0,-34.0414,-60.1297,Oil,9070.0,45376763.0,Developing
149,ARG,Argentina,CT AÑATUYA,19.2,-28.4431,-62.8569,Oil,9070.0,45376763.0,Developing
150,ARG,Argentina,CT AÑATUYA II,11.5,-28.4431,-62.8569,Oil,9070.0,45376763.0,Developing
151,ARG,Argentina,CT BARILOCHE,20.0,-41.1497,-71.2633,Oil,9070.0,45376763.0,Developing
152,ARG,Argentina,CT BELL VILLE,15.62,-32.6103,-62.6864,Oil,9070.0,45376763.0,Developing
153,ARG,Argentina,CT BRAGADO,49.8,-35.1364,-60.4311,Gas,9070.0,45376763.0,Developing
154,ARG,Argentina,CT CAPITAN SARMIENTO,5.0,-34.1636,-59.7683,Oil,9070.0,45376763.0,Developing
155,ARG,Argentina,CT CATAMARCA,19.2,-28.4706,-65.7647,Oil,9070.0,45376763.0,Developing
156,ARG,Argentina,CT CAVIAHUE,5.0,-38.0528,-70.6136,Oil,9070.0,45376763.0,Developing
157,ARG,Argentina,CT CERES,18.0,-29.8883,-61.9297,Oil,9070.0,45376763.0,Developing
158,ARG,Argentina,CT CHARATA,19.4,-27.2369,-61.1939,Oil,9070.0,45376763.0,Developing
159,ARG,Argentina,CT CHILECITO,10.0,-29.1581,-67.5072,Oil,9070.0,45376763.0,Developing
160,ARG,Argentina,CT CIPOLLETTI,5.0,-38.9133,-67.9414,Oil,9070.0,45376763.0,Developing
161,ARG,Argentina,CT COLON BUENOS AIRES,15.3,-33.9222,-61.0769,Oil,9070.0,45376763.0,Developing
162,ARG,Argentina,CT CONCEPCION DEL URUGUAY,41.78,-32.4767,-58.2672,Gas,9070.0,45376763.0,Developing
163,ARG,Argentina,CT CORRIENTES,20.0,-27.4708,-58.8042,Oil,9070.0,45376763.0,Developing
164,ARG,Argentina,CT ECOENERGIA (PETROBRAS),13.2,-38.6871,-62.3961,Coal,9070.0,45376763.0,Developing
165,ARG,Argentina,CT ENSENADA DE BARRAGAN,567.0,-34.8597,-57.9557,Gas,9070.0,45376763.0,Developing
166,ARG,Argentina,CT ESQUINA,16.5,-30.055,-59.5294,Oil,9070.0,45376763.0,Developing
167,ARG,Argentina,CT FORMOSA II,30.0,-26.1764,-58.2094,Oil,9070.0,45376763.0,Developing
168,ARG,Argentina,CT GENERAL VILLEGAS,23.49,-35.0347,-62.9981,Oil,9070.0,45376763.0,Developing
169,ARG,Argentina,CT GOYA,13.0,-29.1583,-59.2728,Oil,9070.0,45376763.0,Developing
170,ARG,Argentina,CT INDEPENDENCIA,120.0,-26.8666,-65.2247,Gas,9070.0,45376763.0,Developing
171,ARG,Argentina,CT INGENIERO JUAREZ,4.0,-23.9078,-61.8342,Oil,9070.0,45376763.0,Developing
172,ARG,Argentina,CT INTA CATAMARCA,7.04,-28.4733,-65.7275,Oil,9070.0,45376763.0,Developing
173,ARG,Argentina,CT ISLA VERDE,24.5,-33.2425,-62.395,Oil,9070.0,45376763.0,Developing
174,ARG,Argentina,CT JUAN JOSE CASTELLI,15.0,-25.9564,-60.6204,Oil,9070.0,45376763.0,Developing
175,ARG,Argentina,CT JUNIN,22.0,-34.5708,-60.9161,Oil,9070.0,45376763.0,Developing
176,ARG,Argentina,CT LA PLATA,40.4,-34.9344,-58.016,Oil,9070.0,45376763.0,Developing
177,ARG,Argentina,CT LA RIOJA DELIVERY,19.2,-29.3811,-66.8325,Oil,9070.0,45376763.0,Developing
178,ARG,Argentina,CT LA RIOJA SUR,10.0,-29.3808,-66.8319,Oil,9070.0,45376763.0,Developing
179,ARG,Argentina,CT LAGUNA BLANCA,7.0,-25.1286,-58.2597,Oil,9070.0,45376763.0,Developing
180,ARG,Argentina,CT LAS ARMAS,10.4,-37.0781,-57.8181,Gas,9070.0,45376763.0,Developing
181,ARG,Argentina,CT LAS ARMAS II,23.37,-37.0781,-57.8181,Gas,9070.0,45376763.0,Developing
182,ARG,Argentina,CT LAS PALMAS,6.0,-27.0289,-58.6997,Oil,9070.0,45376763.0,Developing
183,ARG,Argentina,CT LIBERTADOR GENERAL SAN MARTIN,15.0,-40.8421,-68.0869,Oil,9070.0,45376763.0,Developing
184,ARG,Argentina,CT LINCOLN,15.002,-34.8578,-61.5206,Oil,9070.0,45376763.0,Developing
185,ARG,Argentina,CT LOBOS,15.686,-35.1917,-59.0808,Oil,9070.0,45376763.0,Developing
186,ARG,Argentina,CT MAGDALENA,25.0,-35.1001,-57.4839,Oil,9070.0,45376763.0,Developing
187,ARG,Argentina,CT MATHEU,41.0,-34.3931,-58.8372,Gas,9070.0,45376763.0,Developing
188,ARG,Argentina,CT MEDANITOS (RINCON DE LOS SAUCES),32.0,-37.4102,-68.9,Oil,9070.0,45376763.0,Developing
189,ARG,Argentina,CT MIRAMAR I,20.0,-38.2472,-57.8242,Oil,9070.0,45376763.0,Developing
190,ARG,Argentina,CT OLAVARRIA,38.8,-36.9439,-60.2361,Gas,9070.0,45376763.0,Developing
191,ARG,Argentina,CT ORAN,15.0,-23.1258,-64.3069,Oil,9070.0,45376763.0,Developing
192,ARG,Argentina,CT PARANA,40.0,-31.7764,-60.4553,Gas,9070.0,45376763.0,Developing
193,ARG,Argentina,CT PARQUE INDUSTRIAL CATAMARCA,15.0,-28.5339,-65.7997,Oil,9070.0,45376763.0,Developing
194,ARG,Argentina,CT PASO DE LA PATRIA,7.2,-27.3236,-58.5667,Oil,9070.0,45376763.0,Developing
195,ARG,Argentina,CT PEHUAJO,22.4,-35.8336,-61.8758,Oil,9070.0,45376763.0,Developing
196,ARG,Argentina,CT PINAMAR,21.0,-37.0953,-56.8789,Gas,9070.0,45376763.0,Developing
197,ARG,Argentina,CT PIRANE,16.25,-25.6786,-59.0756,Oil,9070.0,45376763.0,Developing
198,ARG,Argentina,CT PLUSPETROL NORTE,246.0,-26.9955,-65.166,Gas,9070.0,45376763.0,Developing
199,ARG,Argentina,CT RAFAELA,19.2,-31.2567,-61.5203,Oil,9070.0,45376763.0,Developing
200,ARG,Argentina,CT REALICO,24.0,-35.055,-64.2406,Oil,9070.0,45376763.0,Developing
201,ARG,Argentina,CT ROCA,130.0,-31.8919,-60.0106,Gas,9070.0,45376763.0,Developing
202,ARG,Argentina,CT SAENZ PEÑA  I,20.0,-26.8156,-60.4114,Oil,9070.0,45376763.0,Developing
203,ARG,Argentina,CT SAENZ PEÑA  II,15.0,-26.8153,-60.4125,Oil,9070.0,45376763.0,Developing
204,ARG,Argentina,CT SALTO,22.5,-27.4597,-65.6055,Oil,9070.0,45376763.0,Developing
205,ARG,Argentina,CT SAN MARTIN NORTE III,5.1000000000000005,-34.5252,-58.6206,Oil,9070.0,45376763.0,Developing
206,ARG,Argentina,CT SAN MIGUEL DE TUCUMAN,396.62,-26.9955,-65.166,Gas,9070.0,45376763.0,Developing
207,ARG,Argentina,CT SAN MIGUEL NORTE III,11.5,-34.5252,-58.6206,Oil,9070.0,45376763.0,Developing
208,ARG,Argentina,CT SANTA ROSA,6.0,-28.2628,-58.0006,Oil,9070.0,45376763.0,Developing
209,ARG,Argentina,CT TARTAGAL,10.0,-22.5406,-63.8056,Oil,9070.0,45376763.0,Developing
210,ARG,Argentina,CT TEREVINTOS,8.0,-28.4289,-65.7878,Oil,9070.0,45376763.0,Developing
211,ARG,Argentina,CT TINOGASTA,15.0,-28.0486,-67.5667,Oil,9070.0,45376763.0,Developing
212,ARG,Argentina,CT TUCUMAN,438.0,-26.9955,-65.166,Gas,9070.0,45376763.0,Developing
213,ARG,Argentina,CT VENADO TUERTO,19.2,-33.7736,-61.9564,Oil,9070.0,45376763.0,Developing
214,ARG,Argentina,CT VIALE,10.0,-31.8919,-60.0106,Oil,9070.0,45376763.0,Developing
215,ARG,Argentina,CT VILLA ANGELA,15.0,-27.5808,-60.7094,Oil,9070.0,45376763.0,Developing
216,ARG,Argentina,CT VILLA REGINA,5.0,-39.0872,-67.0881,Oil,9070.0,45376763.0,Developing
217,ARG,Argentina,CUESTA DEL VIENTO,10.55,-30.1833,-69.0667,Hydro,9070.0,45376763.0,Developing
218,ARG,Argentina,Cafayate,80.0,-26.04,-65.93,Solar,9070.0,45376763.0,Developing
219,ARG,Argentina,Caldenes del Oeste,30.0,-33.61,-65.445,Solar,9070.0,45376763.0,Developing
220,ARG,Argentina,Cauchari,300.0,-23.8,-66.8,Solar,9070.0,45376763.0,Developing
221,ARG,Argentina,DEAN FUNES,70.12,-31.3934,-64.2059,Gas,9070.0,45376763.0,Developing
222,ARG,Argentina,DIQUE,68.44,-34.8902,-57.933,Gas,9070.0,45376763.0,Developing
223,ARG,Argentina,DOCK SUD,872.3,-34.6533,-58.342,Gas,9070.0,45376763.0,Developing
224,ARG,Argentina,EL CADILLAL,14.0,-26.6156,-65.1929,Hydro,9070.0,45376763.0,Developing
225,ARG,Argentina,EL CARRIZAL,17.0,-33.2993,-68.7199,Hydro,9070.0,45376763.0,Developing
226,ARG,Argentina,EL CHOCON,1200.0,-39.2577,-68.7483,Hydro,9070.0,45376763.0,Developing
227,ARG,Argentina,EL TIGRE,14.4,-34.61,-68.6136,Hydro,9070.0,45376763.0,Developing
228,ARG,Argentina,EL TUNAL,11.0,-25.2323,-64.4762,Hydro,9070.0,45376763.0,Developing
229,ARG,Argentina,EMBALSE,648.0,-32.2316,-64.4422,Nuclear,9070.0,45376763.0,Developing
230,ARG,Argentina,ESCABA,24.0,-27.6589,-65.7633,Hydro,9070.0,45376763.0,Developing
231,ARG,Argentina,ESQUINA,2.215,-30.0102,-59.5321,Oil,9070.0,45376763.0,Developing
232,ARG,Argentina,EX CENTRAL BUENOS AIRES,321.0,-34.627,-58.3382,Gas,9070.0,45376763.0,Developing
233,ARG,Argentina,FILO MORADO,67.5,-37.2742,-69.652,Gas,9070.0,45376763.0,Developing
234,ARG,Argentina,FITZ SIMON,10.8,-32.1784,-64.4207,Hydro,9070.0,45376763.0,Developing
235,ARG,Argentina,FLORENTINO AMEGHINO,60.0,-43.6996,-66.4815,Hydro,9070.0,45376763.0,Developing
236,ARG,Argentina,FUTALEUFU,472.0,-43.1288,-71.63,Hydro,9070.0,45376763.0,Developing
237,ARG,Argentina,GENERACION FRIAS SA,60.0,-28.6072,-65.1228,Gas,9070.0,45376763.0,Developing
238,ARG,Argentina,GENERAL ACHA,1.8,-37.4309,-64.716,Wind,9070.0,45376763.0,Developing
239,ARG,Argentina,GENERAL LEVALLE,72.78,-34.0364,-63.9217,Gas,9070.0,45376763.0,Developing
240,ARG,Argentina,GENERAL SAN MARTIN,6.0,-33.0449,-68.9219,Hydro,9070.0,45376763.0,Developing
241,ARG,Argentina,GOYA,1.33,-29.1388,-59.2277,Oil,9070.0,45376763.0,Developing
242,ARG,Argentina,GOYA (ELECTROPATAGONIA SA),17.3,-29.1388,-59.2277,Gas,9070.0,45376763.0,Developing
243,ARG,Argentina,GUILLERMO CESPEDES,5.2,-39.56,-65.6817,Hydro,9070.0,45376763.0,Developing
244,ARG,Argentina,H. PICHI PICUN LEUFU,285.0,-40.012,-69.9918,Hydro,9070.0,45376763.0,Developing
245,ARG,Argentina,ISLA VERDE,3.115,-33.2422,-62.3946,Oil,9070.0,45376763.0,Developing
246,ARG,Argentina,ITA IBATE,1.052,-27.4252,-57.3341,Oil,9070.0,45376763.0,Developing
247,ARG,Argentina,ITUZAINGO,1.33,-27.5785,-56.6726,Oil,9070.0,45376763.0,Developing
248,ARG,Argentina,Iglesia-Guañizuil,80.0,-30.34,-69.27,Solar,9070.0,45376763.0,Developing
249,ARG,Argentina,JULIAN  ROMERO,6.2,-38.8367,-68.038,Hydro,9070.0,45376763.0,Developing
250,ARG,Argentina,LA CRUZ,1.33,-29.1762,-56.6394,Oil,9070.0,45376763.0,Developing
251,ARG,Argentina,LA PLATA COGENERACION,128.0,-34.889,-57.9206,Gas,9070.0,45376763.0,Developing
252,ARG,Argentina,LA RIOJA,42.0,-29.3823,-66.8325,Oil,9070.0,45376763.0,Developing
253,ARG,Argentina,LA TABLADA,22.15,-27.4184,-55.9097,Gas,9070.0,45376763.0,Developing
254,ARG,Argentina,LA VIÑA,16.0,-31.8708,-65.0349,Hydro,9070.0,45376763.0,Developing
255,ARG,Argentina,LAS MADERAS,30.0,-24.4438,-65.2203,Hydro,9070.0,45376763.0,Developing
256,ARG,Argentina,LOS CORONELES (EX 25  DE MAYO),6.6000000000000005,-34.6,-68.5285,Hydro,9070.0,45376763.0,Developing
257,ARG,Argentina,LOS MOLINOS I,59.04,-31.838,-64.4452,Hydro,9070.0,45376763.0,Developing
258,ARG,Argentina,LOS MOLINOS II,4.5,-31.838,-64.4452,Hydro,9070.0,45376763.0,Developing
259,ARG,Argentina,LOS QUIROGA,2.5,-27.6509,-64.3618,Hydro,9070.0,45376763.0,Developing
260,ARG,Argentina,LOS REYUNOS,224.0,-34.6028,-68.6383,Hydro,9070.0,45376763.0,Developing
261,ARG,Argentina,LUJAN DE CUYO,549.76,-33.0551,-68.981,Gas,9070.0,45376763.0,Developing
262,ARG,Argentina,MAR DE AJO,34.0,-36.7208,-63.1977,Gas,9070.0,45376763.0,Developing
263,ARG,Argentina,MAR DEL PLATA (9 DE JULIO),201.3,-38.0495,-57.546,Gas,9070.0,45376763.0,Developing
264,ARG,Argentina,MAYOR BURATOVICH,2.02,-39.2291,-62.6497,Wind,9070.0,45376763.0,Developing
265,ARG,Argentina,MBURUCUYA,1.035,-28.0441,-58.2285,Oil,9070.0,45376763.0,Developing
266,ARG,Argentina,MERCEDES,2.3080000000000003,-29.1808,-58.0793,Oil,9070.0,45376763.0,Developing
267,ARG,Argentina,MODESTO MARANZANA,250.0,-33.1608,-64.3656,Gas,9070.0,45376763.0,Developing
268,ARG,Argentina,NECOCHEA,206.0,-38.5785,-58.7108,Coal,9070.0,45376763.0,Developing
269,ARG,Argentina,NIHUIL I,74.24,-34.9907,-68.6237,Hydro,9070.0,45376763.0,Developing
270,ARG,Argentina,NIHUIL II,133.12,-34.9039,-68.6177,Hydro,9070.0,45376763.0,Developing
271,ARG,Argentina,NIHUIL III,52.0,-34.8821,-68.576,Hydro,9070.0,45376763.0,Developing
272,ARG,Argentina,NIHUIL IV,22.4,-34.833,-68.5168,Hydro,9070.0,45376763.0,Developing
273,ARG,Argentina,NUEVA ESPERANZA,3.38,-26.2072,-64.2477,Oil,9070.0,45376763.0,Developing
274,ARG,Argentina,NUEVO PUERTO,1217.7,-34.5721,-58.3835,Gas,9070.0,45376763.0,Developing
275,ARG,Argentina,OBERA (TG Nº21 FIAT ),17.2,-27.5019,-55.1245,Gas,9070.0,45376763.0,Developing
276,ARG,Argentina,ORENSE,1.72,-38.6851,-59.7804,Oil,9070.0,45376763.0,Developing
277,ARG,Argentina,PARANA,845.26,-33.3549,-60.1718,Other,9070.0,45376763.0,Developing
278,ARG,Argentina,PARQUE EOLICO ARAUCO SAPEM I,25.2,-28.6684,-66.7524,Wind,9070.0,45376763.0,Developing
279,ARG,Argentina,PARQUE EOLICO ARAUCO SAPEM II,25.2,-28.6684,-66.7524,Wind,9070.0,45376763.0,Developing
280,ARG,Argentina,PARQUE EOLICO DIADEMA,6.3,-45.7458,-67.6953,Wind,9070.0,45376763.0,Developing
281,ARG,Argentina,PARQUE EOLICO EL TORDILLO,3.0,-45.8507,-67.9081,Wind,9070.0,45376763.0,Developing
282,ARG,Argentina,PARQUE EOLICO LOMA BLANCA IV (ENARSA),50.0,-43.0907,-65.2298,Wind,9070.0,45376763.0,Developing
283,ARG,Argentina,PARQUE EOLICO RAWSON I (ENARSA),48.6,-43.3522,-65.1734,Wind,9070.0,45376763.0,Developing
284,ARG,Argentina,PARQUE EOLICO RAWSON II (ENARSA),28.8,-43.3522,-65.1734,Wind,9070.0,45376763.0,Developing
285,ARG,Argentina,PASO DE LOS LIBRES,2.135,-29.7148,-57.0933,Oil,9070.0,45376763.0,Developing
286,ARG,Argentina,PATAGONIA,123.7,-45.7934,-67.5145,Gas,9070.0,45376763.0,Developing
287,ARG,Argentina,PERUGORRIA,1.11,-29.34,-58.6077,Oil,9070.0,45376763.0,Developing
288,ARG,Argentina,PICO TRUNCADO - JORGE ROMANUTTI,2.4,-46.8065,-67.9808,Wind,9070.0,45376763.0,Developing
289,ARG,Argentina,PICO TRUNCADO I,45.6,-46.7842,-67.9498,Gas,9070.0,45376763.0,Developing
290,ARG,Argentina,PIEDRA DEL AGUILA (CPSA),1400.0,-31.6651,-63.8314,Hydro,9070.0,45376763.0,Developing
291,ARG,Argentina,PIEDRAS MORAS,6.3,-32.1675,-64.2438,Hydro,9070.0,45376763.0,Developing
292,ARG,Argentina,PILAR  BICENTENARIO,467.0,-31.6651,-63.8314,Gas,9070.0,45376763.0,Developing
293,ARG,Argentina,PILAR ZANICHELLI,216.0,-31.6662,-63.8344,Coal,9070.0,45376763.0,Developing
294,ARG,Argentina,PLANICIE BANDERITA,472.0,-28.5339,-65.7997,Hydro,9070.0,45376763.0,Developing
295,ARG,Argentina,PLANTA PILOTO FOTOVOLTAICA SAN JUAN 1,1.2,-31.3891,-68.6752,Solar,9070.0,45376763.0,Developing
296,ARG,Argentina,PRESIDENTE SARMIENTO,31.5,-31.5129,-68.5399,Gas,9070.0,45376763.0,Developing
297,ARG,Argentina,PUEBLO VIEJO,19.2,-27.1149,-65.7523,Hydro,9070.0,45376763.0,Developing
298,ARG,Argentina,PUERTO MADRYN,42.0,-42.7069,-65.1048,Gas,9070.0,45376763.0,Developing
299,ARG,Argentina,PUERTO NUEVO,589.0,-34.5754,-58.3788,Coal,9070.0,45376763.0,Developing
300,ARG,Argentina,PUNTA ALTA - CENTENARIO,1.8,-38.7833,-61.8984,Wind,9070.0,45376763.0,Developing
301,ARG,Argentina,QUEBRADA DE ULLUM,45.0,-31.2567,-61.5203,Hydro,9070.0,45376763.0,Developing
302,ARG,Argentina,RIO CORRALITO,13.2,-24.983,-65.686,Hydro,9070.0,45376763.0,Developing
303,ARG,Argentina,RIO CUARTO,35.57,-33.1614,-64.3649,Gas,9070.0,45376763.0,Developing
304,ARG,Argentina,RIO GRANDE,750.0,-53.7862,-67.7222,Hydro,9070.0,45376763.0,Developing
305,ARG,Argentina,RIO HONDO,19.0,-27.5225,-64.8861,Hydro,9070.0,45376763.0,Developing
306,ARG,Argentina,SALTO ANDERSEN,7.9,-38.8244,-64.8296,Hydro,9070.0,45376763.0,Developing
307,ARG,Argentina,SALTO GRANDE (MITAD ARGENTINA),945.0,-31.3891,-68.6752,Hydro,9070.0,45376763.0,Developing
308,ARG,Argentina,SAN FRANCISCO,40.0,-31.4391,-62.1119,Gas,9070.0,45376763.0,Developing
309,ARG,Argentina,SAN MARTIN DE LOS ANDES,4.218,-40.1511,-71.334,Oil,9070.0,45376763.0,Developing
310,ARG,Argentina,SAN NICOLAS,644.0,-33.3562,-60.1729,Coal,9070.0,45376763.0,Developing
311,ARG,Argentina,SAN PEDRO,2.2159999999999997,-26.6253,-54.1102,Oil,9070.0,45376763.0,Developing
312,ARG,Argentina,SAN ROQUE,26.0,-31.3533,-64.3938,Hydro,9070.0,45376763.0,Developing
313,ARG,Argentina,SANTA ISABEL,2.25,-36.2314,-66.9381,Oil,9070.0,45376763.0,Developing
314,ARG,Argentina,SANTO TOME,2.6839999999999997,-28.5497,-56.0722,Oil,9070.0,45376763.0,Developing
315,ARG,Argentina,SORRENTO,226.0,-32.9053,-60.6807,Coal,9070.0,45376763.0,Developing
316,ARG,Argentina,SUDOESTE,140.0,-31.463,-64.2388,Gas,9070.0,45376763.0,Developing
317,ARG,Argentina,Saujil,22.5,-28.165,-66.225,Solar,9070.0,45376763.0,Developing
318,ARG,Argentina,TARTAGAL,17.0,-22.5099,-63.797,Gas,9070.0,45376763.0,Developing
319,ARG,Argentina,TENARIS SIDERCA CETE II,163.20000000000005,-33.3655,-60.1435,Gas,9070.0,45376763.0,Developing
320,ARG,Argentina,TOSTADO,3.2,-29.2352,-61.7577,Oil,9070.0,45376763.0,Developing
321,ARG,Argentina,ULLUM,42.0,-31.4557,-68.7556,Hydro,9070.0,45376763.0,Developing
322,ARG,Argentina,URUGUA-I,120.0,-25.8766,-54.5687,Hydro,9070.0,45376763.0,Developing
323,ARG,Argentina,VENADO TUERTO,9.1,-33.7777,-61.9555,Oil,9070.0,45376763.0,Developing
324,ARG,Argentina,VILLA GESELL,130.0,-37.2487,-56.9973,Gas,9070.0,45376763.0,Developing
325,ARG,Argentina,VILLA MARIA (LAS PLAYAS),48.0,-39.0872,-67.0881,Gas,9070.0,45376763.0,Developing
326,ARG,Argentina,VUELTA DE OBLIGADO,560.0,-32.5807,-60.7903,Gas,9070.0,45376763.0,Developing
327,ARG,Argentina,YACYRETA,1550.0,-27.4827,-56.7397,Hydro,9070.0,45376763.0,Developing
328,ARM,Armenia,Armenian-2,375.0,40.1805,44.1498,Nuclear,4220.0,2963234.0,Developing
329,ARM,Armenia,Hrazadan,1110.0,40.564,44.7479,Gas,4220.0,2963234.0,Developing
330,ARM,Armenia,New Yerevan,271.0,40.1152,44.4973,Gas,4220.0,2963234.0,Developing
331,ARM,Armenia,Sevan-Hrazdan Cascade,561.0,40.5078,44.7606,Hydro,4220.0,2963234.0,Developing
332,ARM,Armenia,Shamb,170.0,39.4743,46.1306,Hydro,4220.0,2963234.0,Developing
333,ARM,Armenia,Spandaryan,76.0,39.6494,45.85,Hydro,4220.0,2963234.0,Developing
334,ARM,Armenia,Tatev,158.0,39.3956,46.2578,Hydro,4220.0,2963234.0,Developing
335,ARM,Armenia,Yerevan,550.0,40.1138,44.5038,Gas,4220.0,2963234.0,Developing
336,AUS,Australia,Adelaide Showgrounds,1.0,-34.9453,138.5882,Solar,53690.0,25687041.0,Developed
337,AUS,Australia,Albany Wind Farm,21.6,-35.0641,117.7977,Wind,53690.0,25687041.0,Developed
338,AUS,Australia,Amcor Gawler,4.0,-34.5509,138.7659,Oil,53690.0,25687041.0,Developed
339,AUS,Australia,Angaston,50.0,-34.5034,139.0246,Oil,53690.0,25687041.0,Developed
340,AUS,Australia,Anglesea,165.0,-38.3861,144.1828,Coal,53690.0,25687041.0,Developed
341,AUS,Australia,Angurugu,3.6,-13.8584,136.4209,Oil,53690.0,25687041.0,Developed
342,AUS,Australia,Appin (Mine),55.6,-34.2082,150.7722,Gas,53690.0,25687041.0,Developed
343,AUS,Australia,Ararat Wind Farm,240.0,-37.2385,143.0794,Wind,53690.0,25687041.0,Developed
344,AUS,Australia,Argyle Diamond Mine,32.0,-16.7162,128.4031,Oil,53690.0,25687041.0,Developed
345,AUS,Australia,Bairnsdale,94.0,-37.8429,147.5639,Gas,53690.0,25687041.0,Developed
346,AUS,Australia,Ballarat Base Hospital,3.0,-37.5596,143.8469,Gas,53690.0,25687041.0,Developed
347,AUS,Australia,Banimboola,12.85,-36.5344,147.4594,Hydro,53690.0,25687041.0,Developed
348,AUS,Australia,Bankstown Sports Club,2.0,-33.9197,151.0332,Oil,53690.0,25687041.0,Developed
349,AUS,Australia,Bannerton Solar Farm,88.0,-34.6899,142.7452,Solar,53690.0,25687041.0,Developed
350,AUS,Australia,Barcaldine (Len Wishaw),37.0,-23.5525,145.3142,Gas,53690.0,25687041.0,Developed
351,AUS,Australia,Barcaldine KDB,20.0,-23.549,145.318,Solar,53690.0,25687041.0,Developed
352,AUS,Australia,Barcaldine YD,10.9,-23.5388,145.2732,Solar,53690.0,25687041.0,Developed
353,AUS,Australia,Barron Gorge,60.0,-16.8502,145.6465,Hydro,53690.0,25687041.0,Developed
354,AUS,Australia,Bastyan,79.9,-41.736,145.5321,Hydro,53690.0,25687041.0,Developed
355,AUS,Australia,Bayswater,2640.0,-32.3953,150.9491,Coal,53690.0,25687041.0,Developed
356,AUS,Australia,Belconnen,1.0,-35.2142,148.9872,Waste,53690.0,25687041.0,Developed
357,AUS,Australia,Bell Bay (Bell Bay Three),115.0,-41.1429,146.903,Gas,53690.0,25687041.0,Developed
358,AUS,Australia,Bendeela (Shoalhaven Scheme),240.0,-34.7337,150.4669,Hydro,53690.0,25687041.0,Developed
359,AUS,Australia,Berrimah,10.0,-12.4262,130.9195,Gas,53690.0,25687041.0,Developed
360,AUS,Australia,Berwick,7.2,-38.1197,145.2665,Waste,53690.0,25687041.0,Developed
361,AUS,Australia,Beryl AU,87.0,-32.353,149.468,Solar,53690.0,25687041.0,Developed
362,AUS,Australia,Bidyadanga,1.3,-18.6816,121.7848,Oil,53690.0,25687041.0,Developed
363,AUS,Australia,Blayney Wind Farm,9.9,-33.6219,149.1982,Wind,53690.0,25687041.0,Developed
364,AUS,Australia,Blowering,70.0,-35.3986,148.2463,Hydro,53690.0,25687041.0,Developed
365,AUS,Australia,Blue Lake Milling Power Plant,1.0,-36.3164,140.7575,Oil,53690.0,25687041.0,Developed
366,AUS,Australia,Bluff Point (Woolnorth) Wind Farm,65.0,-40.7207,144.6869,Wind,53690.0,25687041.0,Developed
367,AUS,Australia,Boco Rock,113.0,-36.5763,149.1267,Wind,53690.0,25687041.0,Developed
368,AUS,Australia,Bodangora Wind Farm,113.0,-32.4146,149.0998,Wind,53690.0,25687041.0,Developed
369,AUS,Australia,Bogong (Mount Beauty Hydro Scheme),300.0,-36.8055,147.228,Hydro,53690.0,25687041.0,Developed
370,AUS,Australia,Braemar 1,504.0,-27.1109,150.9053,Gas,53690.0,25687041.0,Developed
371,AUS,Australia,Braemar 2,519.0,-27.1128,150.9049,Gas,53690.0,25687041.0,Developed
372,AUS,Australia,Bremer Bay Diesel Backup,1.3,-34.4018,119.3888,Oil,53690.0,25687041.0,Developed
373,AUS,Australia,Brewer,8.5,-23.8817,133.8281,Gas,53690.0,25687041.0,Developed
374,AUS,Australia,Brisbane BNE,6.0,-27.404,153.11,Solar,53690.0,25687041.0,Developed
375,AUS,Australia,Broadmeadows,12.2,-37.6878,144.9663,Waste,53690.0,25687041.0,Developed
376,AUS,Australia,Broadwater,38.0,-29.0118,153.4335,Biomass,53690.0,25687041.0,Developed
377,AUS,Australia,Broken Hill,50.0,-31.9863,141.4203,Gas,53690.0,25687041.0,Developed
378,AUS,Australia,Broken Hill Solar Plant,53.0,-31.9867,141.3915,Solar,53690.0,25687041.0,Developed
379,AUS,Australia,Brooklyn,2.83,-37.818,144.8319,Waste,53690.0,25687041.0,Developed
380,AUS,Australia,Broome,39.6,-17.981,122.2046,Gas,53690.0,25687041.0,Developed
381,AUS,Australia,Brown Mountain,4.95,-36.5951,149.474,Hydro,53690.0,25687041.0,Developed
382,AUS,Australia,Browns Plains,2.2,-27.6721,153.0663,Waste,53690.0,25687041.0,Developed
383,AUS,Australia,Bulwer Island,33.0,-27.4036,153.1363,Gas,53690.0,25687041.0,Developed
384,AUS,Australia,Bungala I,110.0,-32.427,137.838,Solar,53690.0,25687041.0,Developed
385,AUS,Australia,Bungala II,110.0,-32.408,137.841,Solar,53690.0,25687041.0,Developed
386,AUS,Australia,Burrendong,19.0,-32.6646,149.108,Hydro,53690.0,25687041.0,Developed
387,AUS,Australia,Burrinjuck Power Station,27.0,-35.0025,148.5834,Hydro,53690.0,25687041.0,Developed
388,AUS,Australia,Burrup Peninsula (Karratha Gas Plant),240.0,-20.6286,116.7821,Gas,53690.0,25687041.0,Developed
389,AUS,Australia,Burrup Peninsula (Pluto Phase 1),160.0,-20.5937,116.7802,Gas,53690.0,25687041.0,Developed
390,AUS,Australia,Butlers Gorge,14.4,-42.2669,146.2618,Hydro,53690.0,25687041.0,Developed
391,AUS,Australia,CSIRO Energy Centre,1.5,-32.8835,151.7275,Solar,53690.0,25687041.0,Developed
392,AUS,Australia,Callide A,30.0,-24.334,150.628,Coal,53690.0,25687041.0,Developed
393,AUS,Australia,Callide B,700.0,-24.3449,150.6197,Coal,53690.0,25687041.0,Developed
394,AUS,Australia,Callide C,840.0,-24.3449,150.6182,Coal,53690.0,25687041.0,Developed
395,AUS,Australia,Camballin,1.04,-18.0278,124.1621,Gas,53690.0,25687041.0,Developed
396,AUS,Australia,Canning Vale,4.0,-32.0739,115.8914,Waste,53690.0,25687041.0,Developed
397,AUS,Australia,Cannington Mine,40.0,-21.8601,140.9158,Gas,53690.0,25687041.0,Developed
398,AUS,Australia,Canunda Wind Farm,46.0,-37.7603,140.4033,Wind,53690.0,25687041.0,Developed
399,AUS,Australia,Cape Bridgewater Wind Farm,58.0,-38.3577,141.385,Wind,53690.0,25687041.0,Developed
400,AUS,Australia,Cape Lambert,105.0,-20.6488,117.1407,Gas,53690.0,25687041.0,Developed
401,AUS,Australia,Cape Nelson North Wind Farm,22.0,-38.3676,141.543,Wind,53690.0,25687041.0,Developed
402,AUS,Australia,Cape Nelson South Wind Farm,44.0,-38.412,141.543,Wind,53690.0,25687041.0,Developed
403,AUS,Australia,Cape Preston,450.0,-21.0767,116.159,Gas,53690.0,25687041.0,Developed
404,AUS,Australia,Cape Sir William Grant Wind Farm,54.0,-38.3976,141.6209,Wind,53690.0,25687041.0,Developed
405,AUS,Australia,Capital Hill Wind Farm,140.0,-35.166,149.5186,Wind,53690.0,25687041.0,Developed
406,AUS,Australia,Capral (Aluminium Smelter),300.0,-32.7897,151.4813,Gas,53690.0,25687041.0,Developed
407,AUS,Australia,Carnarvon,15.0,-24.8692,113.6754,Gas,53690.0,25687041.0,Developed
408,AUS,Australia,Catagunya,48.0,-42.4524,146.5977,Hydro,53690.0,25687041.0,Developed
409,AUS,Australia,Cathedral Rocks Wind Farm,66.0,-34.8509,135.5852,Wind,53690.0,25687041.0,Developed
410,AUS,Australia,Cawse Nickel Mine,21.0,-30.3808,121.1635,Gas,53690.0,25687041.0,Developed
411,AUS,Australia,Cethana,85.0,-41.4787,146.1349,Hydro,53690.0,25687041.0,Developed
412,AUS,Australia,Challicum Hills Wind Farm,52.5,-37.3898,143.114,Wind,53690.0,25687041.0,Developed
413,AUS,Australia,Channel Island,310.0,-12.555,130.8666,Gas,53690.0,25687041.0,Developed
414,AUS,Australia,Charlestown Square,2.8,-32.9643,151.6936,Gas,53690.0,25687041.0,Developed
415,AUS,Australia,Childers,75.0,-25.28,152.38,Solar,53690.0,25687041.0,Developed
416,AUS,Australia,Christmas Creek Iron Ore Mine,58.0,-22.399,119.732,Oil,53690.0,25687041.0,Developed
417,AUS,Australia,Clare Solar Farm,130.0,-19.8398,147.2105,Solar,53690.0,25687041.0,Developed
418,AUS,Australia,Claytons,11.0,-37.9502,145.1187,Waste,53690.0,25687041.0,Developed
419,AUS,Australia,Clements Gap Wind Farm,57.0,-33.5086,138.1192,Wind,53690.0,25687041.0,Developed
420,AUS,Australia,Clermont Solar Farm,100.0,-22.8446,147.5855,Solar,53690.0,25687041.0,Developed
421,AUS,Australia,Cloudbreak,44.0,-22.3247,119.404,Oil,53690.0,25687041.0,Developed
422,AUS,Australia,Clover,30.0,-36.7853,147.2205,Hydro,53690.0,25687041.0,Developed
423,AUS,Australia,Cluny,17.0,-42.5064,146.6812,Hydro,53690.0,25687041.0,Developed
424,AUS,Australia,Cockburn,240.0,-32.2001,115.7737,Gas,53690.0,25687041.0,Developed
425,AUS,Australia,Codrington Wind Farm,18.2,-38.2835,141.9547,Wind,53690.0,25687041.0,Developed
426,AUS,Australia,Collgar Wind Farm,206.0,-31.5432,118.4566,Wind,53690.0,25687041.0,Developed
427,AUS,Australia,Collie (Bluewaters),416.0,-33.331,116.229,Coal,53690.0,25687041.0,Developed
428,AUS,Australia,Collie A,340.0,-33.3422,116.2612,Coal,53690.0,25687041.0,Developed
429,AUS,Australia,Collinsville,190.0,-20.5447,147.8049,Coal,53690.0,25687041.0,Developed
430,AUS,Australia,Collinsville Solar Farm,42.0,-20.5411,147.8074,Solar,53690.0,25687041.0,Developed
431,AUS,Australia,Colongra,724.0,-33.2099,151.5448,Gas,53690.0,25687041.0,Developed
432,AUS,Australia,Condamine A,144.0,-26.6682,150.27,Gas,53690.0,25687041.0,Developed
433,AUS,Australia,Condong Sugar Mill,30.0,-28.3138,153.4341,Biomass,53690.0,25687041.0,Developed
434,AUS,Australia,Copeton,24.0,-29.9102,150.9235,Hydro,53690.0,25687041.0,Developed
435,AUS,Australia,Coral Bay Diesel Backup,2.24,-23.1521,113.7762,Oil,53690.0,25687041.0,Developed
436,AUS,Australia,Corio,1.0,-38.0587,144.4056,Waste,53690.0,25687041.0,Developed
437,AUS,Australia,Crookwell Wind Farm,4.8,-34.5165,149.5425,Wind,53690.0,25687041.0,Developed
438,AUS,Australia,Crowlands Wind Farm,80.0,-37.1216,143.1537,Wind,53690.0,25687041.0,Developed
439,AUS,Australia,Cullerin Range Wind Farm,30.0,-34.805,149.4001,Wind,53690.0,25687041.0,Developed
440,AUS,Australia,Daandine,33.0,-27.0863,150.943,Gas,53690.0,25687041.0,Developed
441,AUS,Australia,Dampier,120.0,-20.648,116.7219,Gas,53690.0,25687041.0,Developed
442,AUS,Australia,Darling Downs,644.0,-27.1169,150.8942,Gas,53690.0,25687041.0,Developed
443,AUS,Australia,Darling Downs Solar Farm,110.0,-27.1169,150.8942,Solar,53690.0,25687041.0,Developed
444,AUS,Australia,Darlot Gold Mine,11.7,-27.8972,121.2698,Gas,53690.0,25687041.0,Developed
445,AUS,Australia,Dartmouth (Mount Beauty Hydro Scheme),150.0,-36.5564,147.5206,Hydro,53690.0,25687041.0,Developed
446,AUS,Australia,Darwin DRW,4.0,-12.4157,130.8908,Solar,53690.0,25687041.0,Developed
447,AUS,Australia,Daydream Solar Farm ,50.0,-20.4947,147.7707,Solar,53690.0,25687041.0,Developed
448,AUS,Australia,DeGrussa,10.6,-25.55,119.317,Solar,53690.0,25687041.0,Developed
449,AUS,Australia,Denham Diesel Backup,1.6,-25.9167,113.534,Oil,53690.0,25687041.0,Developed
450,AUS,Australia,Derby,12.53,-17.3141,123.6441,Gas,53690.0,25687041.0,Developed
451,AUS,Australia,Devils Gate,60.0,-41.3505,146.2632,Hydro,53690.0,25687041.0,Developed
452,AUS,Australia,Diamantina,242.0,-20.7837,139.4833,Gas,53690.0,25687041.0,Developed
453,AUS,Australia,Dry Creek,156.0,-34.8475,138.5818,Gas,53690.0,25687041.0,Developed
454,AUS,Australia,Dubbo,30.0,-32.273,148.658,Solar,53690.0,25687041.0,Developed
455,AUS,Australia,EarthPower Biomass Plant,3.9,-33.8204,151.042,Waste,53690.0,25687041.0,Developed
456,AUS,Australia,Eastern Creek,5.4,-33.8142,150.8537,Waste,53690.0,25687041.0,Developed
457,AUS,Australia,Eastern Creek 2,8.984,-33.8125,150.8617,Waste,53690.0,25687041.0,Developed
458,AUS,Australia,Eildon,120.0,-37.222,145.9215,Hydro,53690.0,25687041.0,Developed
459,AUS,Australia,Eildon Small Hydro,5.0,-37.2431,145.8974,Hydro,53690.0,25687041.0,Developed
460,AUS,Australia,Elliott,1.0,-17.5504,133.5393,Oil,53690.0,25687041.0,Developed
461,AUS,Australia,Emerald Solar Farm,68.0,-23.5084,148.1347,Solar,53690.0,25687041.0,Developed
462,AUS,Australia,Emu Downs,20.0,-30.489,115.416,Solar,53690.0,25687041.0,Developed
463,AUS,Australia,Emu Downs Wind Farm,79.2,-30.4882,115.3768,Wind,53690.0,25687041.0,Developed
464,AUS,Australia,Energy Brix,195.0,-38.2546,146.4137,Coal,53690.0,25687041.0,Developed
465,AUS,Australia,Eraring,41.5,-33.0617,151.5223,Oil,53690.0,25687041.0,Developed
466,AUS,Australia,Esperance,33.0,-33.8762,121.8998,Gas,53690.0,25687041.0,Developed
467,AUS,Australia,Esperance Wind Farm Nine Mile Beach,3.6,-33.8927,121.7778,Wind,53690.0,25687041.0,Developed
468,AUS,Australia,Esperance Wind Farm Ten Mile Lagoon,2.03,-33.8802,121.769,Wind,53690.0,25687041.0,Developed
469,AUS,Australia,Exmouth,8.0,-21.9465,114.125,Gas,53690.0,25687041.0,Developed
470,AUS,Australia,Fisher,43.2,-41.6732,146.2687,Hydro,53690.0,25687041.0,Developed
471,AUS,Australia,Fitzroy Crossing,4.06,-18.1956,125.5597,Gas,53690.0,25687041.0,Developed
472,AUS,Australia,Gannawarra Solar Farm,60.0,-35.6762,143.4553,Solar,53690.0,25687041.0,Developed
473,AUS,Australia,Geraldton,21.0,-28.7701,114.6485,Gas,53690.0,25687041.0,Developed
474,AUS,Australia,German Creek,45.2,-22.9281,148.5515,Gas,53690.0,25687041.0,Developed
475,AUS,Australia,Gladstone,1680.0,-23.8508,151.2187,Coal,53690.0,25687041.0,Developed
476,AUS,Australia,Glenbawn,5.8,-32.1097,150.9982,Hydro,53690.0,25687041.0,Developed
477,AUS,Australia,Glennies Creek,13.0,-32.4598,151.1286,Gas,53690.0,25687041.0,Developed
478,AUS,Australia,Glenorchy,1.6,-42.8415,147.255,Waste,53690.0,25687041.0,Developed
479,AUS,Australia,Goondiwindi,4.5,-28.325,150.375,Solar,53690.0,25687041.0,Developed
480,AUS,Australia,Gordon,432.0,-42.7405,145.9828,Hydro,53690.0,25687041.0,Developed
481,AUS,Australia,Gosnells,1.1,-32.0228,116.0129,Waste,53690.0,25687041.0,Developed
482,AUS,Australia,Grange Avenue,2.0,-33.7029,150.8312,Waste,53690.0,25687041.0,Developed
483,AUS,Australia,Grasmere Wind Farm (Albany Stage II),13.8,-35.0507,117.7638,Wind,53690.0,25687041.0,Developed
484,AUS,Australia,Greenough River Solar Farm,10.0,-28.9043,115.1119,Solar,53690.0,25687041.0,Developed
485,AUS,Australia,Griffith Solar Farm,36.0,-34.3155,146.1094,Solar,53690.0,25687041.0,Developed
486,AUS,Australia,Gullen,10.0,-34.61,149.476,Solar,53690.0,25687041.0,Developed
487,AUS,Australia,Gullen Range Wind Farm,165.5,-34.6149,149.4597,Wind,53690.0,25687041.0,Developed
488,AUS,Australia,Gunning,47.0,-34.6977,149.3861,Wind,53690.0,25687041.0,Developed
489,AUS,Australia,Guthega,80.0,-36.3501,148.4135,Hydro,53690.0,25687041.0,Developed
490,AUS,Australia,Hallam Road,8.984,-38.0535,145.2699,Waste,53690.0,25687041.0,Developed
491,AUS,Australia,Hallet 5 - The Bluff,52.5,-33.3855,138.7928,Wind,53690.0,25687041.0,Developed
492,AUS,Australia,Hallett,228.3,-33.3487,138.7517,Gas,53690.0,25687041.0,Developed
493,AUS,Australia,Hallett 1 Brown Hill Wind Farm,94.5,-33.3397,138.7323,Wind,53690.0,25687041.0,Developed
494,AUS,Australia,Hallett 2 Hallet Hill Wind Farm,71.4,-33.5226,138.8552,Wind,53690.0,25687041.0,Developed
495,AUS,Australia,Halls Creek,3.69,-18.2328,127.6619,Gas,53690.0,25687041.0,Developed
496,AUS,Australia,Hamilton Solar Farm,69.0,-20.5048,147.7671,Solar,53690.0,25687041.0,Developed
497,AUS,Australia,Haughton River Solar Farm,500.0,-19.733,147.0483,Solar,53690.0,25687041.0,Developed
498,AUS,Australia,Hayman Solar Farm,180.0,-20.4877,147.7449,Solar,53690.0,25687041.0,Developed
499,AUS,Australia,Hazelwood,1600.0,-38.2731,146.3923,Coal,53690.0,25687041.0,Developed
500,AUS,Australia,Henderson,3.2,-32.165,115.8008,Waste,53690.0,25687041.0,Developed
501,AUS,Australia,Highbury,2.0,-34.849,138.7203,Waste,53690.0,25687041.0,Developed
502,AUS,Australia,Hobart,1.0,-42.8883,147.2888,Waste,53690.0,25687041.0,Developed
503,AUS,Australia,Hopetoun Diesel Backup,1.3,-33.905,120.1299,Oil,53690.0,25687041.0,Developed
504,AUS,Australia,Hopetoun Wind Turbines,1.2,-33.9078,120.1297,Wind,53690.0,25687041.0,Developed
505,AUS,Australia,Hughendon,20.0,-20.875,144.17,Solar,53690.0,25687041.0,Developed
506,AUS,Australia,Hume,70.0,-36.1066,147.0326,Hydro,53690.0,25687041.0,Developed
507,AUS,Australia,Hunter,29.0,-32.836,151.4505,Oil,53690.0,25687041.0,Developed
508,AUS,Australia,Hunter Valley,50.0,-32.3893,150.9664,Gas,53690.0,25687041.0,Developed
509,AUS,Australia,Inkerman Sugar Mill,10.5,-19.6422,147.4016,Biomass,53690.0,25687041.0,Developed
510,AUS,Australia,Invicta Sugar Mill,150.0,-19.5167,147.1065,Biomass,53690.0,25687041.0,Developed
511,AUS,Australia,Isis Central Sugar Mill,25.0,-25.194,152.2086,Biomass,53690.0,25687041.0,Developed
512,AUS,Australia,Jacks Gully,2.3,-34.0734,150.7427,Waste,53690.0,25687041.0,Developed
513,AUS,Australia,Jeeralang A,204.0,-38.2753,146.4263,Gas,53690.0,25687041.0,Developed
514,AUS,Australia,Jeeralang B,228.0,-38.2746,146.4249,Gas,53690.0,25687041.0,Developed
515,AUS,Australia,Jindabyne Dam Mini Hydro,1.1,-36.4351,148.6333,Hydro,53690.0,25687041.0,Developed
516,AUS,Australia,John Butters,144.0,-42.1548,145.5345,Hydro,53690.0,25687041.0,Developed
517,AUS,Australia,Jounama,14.0,-35.562,148.3055,Hydro,53690.0,25687041.0,Developed
518,AUS,Australia,Jundee Gold Mine,21.0,-26.3712,120.5776,Gas,53690.0,25687041.0,Developed
519,AUS,Australia,KRC Cogeneration Plant,4.2,-27.4453,153.1185,Gas,53690.0,25687041.0,Developed
520,AUS,Australia,Kalamia Sugar Mill,9.0,-19.5223,147.4152,Biomass,53690.0,25687041.0,Developed
521,AUS,Australia,Kalamunda,1.3,-31.9768,115.9988,Oil,53690.0,25687041.0,Developed
522,AUS,Australia,Kalbarri Wind Farm,1.7,-27.8995,114.1946,Wind,53690.0,25687041.0,Developed
523,AUS,Australia,Kalgoorlie (Parkeston),110.0,-30.7378,121.5065,Gas,53690.0,25687041.0,Developed
524,AUS,Australia,Kalgoorlie Nickel Smelter,42.0,-30.8737,121.4842,Gas,53690.0,25687041.0,Developed
525,AUS,Australia,Kambalda,42.0,-31.1919,121.6741,Gas,53690.0,25687041.0,Developed
526,AUS,Australia,Kangaroo Valley (Shoalhaven Scheme),160.0,-34.723,150.4795,Hydro,53690.0,25687041.0,Developed
527,AUS,Australia,Karadoc Solar Farm,112.0,-34.4154,142.2521,Solar,53690.0,25687041.0,Developed
528,AUS,Australia,Kareeya,88.0,-17.767,145.5779,Hydro,53690.0,25687041.0,Developed
529,AUS,Australia,Karratha,86.0,-20.7626,116.8375,Gas,53690.0,25687041.0,Developed
530,AUS,Australia,Katherine,34.7,-14.4587,132.2445,Gas,53690.0,25687041.0,Developed
531,AUS,Australia,Kemerton,260.9,-33.1633,115.7805,Gas,53690.0,25687041.0,Developed
532,AUS,Australia,Kiata Wind Farm,31.05,-36.3966,141.7474,Wind,53690.0,25687041.0,Developed
533,AUS,Australia,Kidston I,50.0,-18.89,144.14,Solar,53690.0,25687041.0,Developed
534,AUS,Australia,King Island (Currie),8.55,-39.9388,143.892,Oil,53690.0,25687041.0,Developed
535,AUS,Australia,Kogan Creek,744.0,-26.9177,150.7493,Coal,53690.0,25687041.0,Developed
536,AUS,Australia,Koombooloomba,7.3,-17.8313,145.6034,Hydro,53690.0,25687041.0,Developed
537,AUS,Australia,Kununurra,12.4,-15.7796,128.7395,Oil,53690.0,25687041.0,Developed
538,AUS,Australia,Kwinana,21.0,-32.197,115.7759,Gas,53690.0,25687041.0,Developed
539,AUS,Australia,Kwinana (Alcoa Refinery),74.5,-32.1946,115.7797,Gas,53690.0,25687041.0,Developed
540,AUS,Australia,Kwinana Cogeneration,123.0,-32.2225,115.7661,Gas,53690.0,25687041.0,Developed
541,AUS,Australia,Kwinana High Efficiency Gas Turbine Plant,200.0,-32.1973,115.7754,Gas,53690.0,25687041.0,Developed
542,AUS,Australia,Kwinana NewGen,320.0,-32.202,115.7728,Gas,53690.0,25687041.0,Developed
543,AUS,Australia,Kwinana Swift,120.0,-32.2243,115.7783,Gas,53690.0,25687041.0,Developed
544,AUS,Australia,Ladbroke Grove,80.0,-37.4567,140.7827,Gas,53690.0,25687041.0,Developed
545,AUS,Australia,Lake Bonney Stage 1 Wind Farm,80.5,-37.7815,140.4058,Wind,53690.0,25687041.0,Developed
546,AUS,Australia,Lake Bonney Stage 2 Wind Farm,159.0,-37.8149,140.4195,Wind,53690.0,25687041.0,Developed
547,AUS,Australia,Lake Bonney Stage 3 Wind Farm,39.0,-37.7505,140.393,Wind,53690.0,25687041.0,Developed
548,AUS,Australia,Lake Cargelligo CSP,3.0,-33.311,146.4092,Solar,53690.0,25687041.0,Developed
549,AUS,Australia,Lake Echo,32.4,-42.2537,146.6207,Hydro,53690.0,25687041.0,Developed
550,AUS,Australia,Lake Glenmaggie,4.0,-37.9047,146.8011,Hydro,53690.0,25687041.0,Developed
551,AUS,Australia,Lake Keepit,6.5,-30.8792,150.4914,Hydro,53690.0,25687041.0,Developed
552,AUS,Australia,Lake William Hovell,2.0,-36.9129,146.3921,Hydro,53690.0,25687041.0,Developed
553,AUS,Australia,Lakeland QLD,10.9,-15.869,144.862,Solar,53690.0,25687041.0,Developed
554,AUS,Australia,Landfill Management Services Shoal Bay,1.1,-12.3892,130.9254,Waste,53690.0,25687041.0,Developed
555,AUS,Australia,Laverton,1.5,-28.6216,122.3965,Oil,53690.0,25687041.0,Developed
556,AUS,Australia,Laverton (Granny Smith Gold Mine),30.6,-28.8096,122.415,Oil,53690.0,25687041.0,Developed
557,AUS,Australia,Laverton North,312.0,-37.8416,144.7887,Gas,53690.0,25687041.0,Developed
558,AUS,Australia,Leichhardt,60.0,-20.7835,139.4864,Gas,53690.0,25687041.0,Developed
559,AUS,Australia,Leinster Nickel Mine,59.0,-27.8141,120.699,Gas,53690.0,25687041.0,Developed
560,AUS,Australia,Lemonthyme,81.6,-41.6038,146.139,Hydro,53690.0,25687041.0,Developed
561,AUS,Australia,Leonards Hill,4.1,-37.4271,144.1222,Wind,53690.0,25687041.0,Developed
562,AUS,Australia,Leonora,4.43,-28.8811,121.3213,Gas,53690.0,25687041.0,Developed
563,AUS,Australia,Liapootah,87.3,-42.3763,146.5099,Hydro,53690.0,25687041.0,Developed
564,AUS,Australia,Liddell,2200.0,-32.3713,150.9776,Coal,53690.0,25687041.0,Developed
565,AUS,Australia,Liddell Solar Thermal,9.3,-32.3761,150.9797,Solar,53690.0,25687041.0,Developed
566,AUS,Australia,Lilyvale Solar Farm,100.0,-23.0875,148.439,Solar,53690.0,25687041.0,Developed
567,AUS,Australia,Lincoln Gap,10.0,-32.5645,137.5572,Wind,53690.0,25687041.0,Developed
568,AUS,Australia,Longford,31.0,-38.2236,147.1657,Gas,53690.0,25687041.0,Developed
569,AUS,Australia,Lonsdale,20.0,-35.1097,138.491,Oil,53690.0,25687041.0,Developed
570,AUS,Australia,Lower Lake Margaret,3.2,-42.0147,145.5261,Hydro,53690.0,25687041.0,Developed
571,AUS,Australia,Lower Rubicon,13.55,-37.3027,145.8458,Hydro,53690.0,25687041.0,Developed
572,AUS,Australia,Loy Yang A,2180.0,-38.2536,146.5746,Coal,53690.0,25687041.0,Developed
573,AUS,Australia,Loy Yang B,1000.0,-38.2564,146.5864,Coal,53690.0,25687041.0,Developed
574,AUS,Australia,Lucas Heights I,5.39,-34.0293,151.0021,Waste,53690.0,25687041.0,Developed
575,AUS,Australia,Lucas Heights II,16.0,-34.0481,150.9739,Waste,53690.0,25687041.0,Developed
576,AUS,Australia,Macarthur Wind Farm,420.0,-38.0648,142.1844,Wind,53690.0,25687041.0,Developed
577,AUS,Australia,Mackay,30.0,-21.1446,149.1591,Gas,53690.0,25687041.0,Developed
578,AUS,Australia,Mackintosh,79.9,-41.6997,145.6461,Hydro,53690.0,25687041.0,Developed
579,AUS,Australia,Macknade Sugar Mill,8.0,-18.589,146.258,Biomass,53690.0,25687041.0,Developed
580,AUS,Australia,Mandurah,1.3,-32.5079,115.759,Waste,53690.0,25687041.0,Developed
581,AUS,Australia,Manildra Solar Farm,46.0,-33.1733,148.718,Solar,53690.0,25687041.0,Developed
582,AUS,Australia,Marble Bar Diesel Backup,1.28,-21.1649,119.7419,Oil,53690.0,25687041.0,Developed
583,AUS,Australia,Maryborough,7.5,-25.5476,152.7171,Biomass,53690.0,25687041.0,Developed
584,AUS,Australia,Maryvale Mill,54.5,-38.1809,146.4479,Biomass,53690.0,25687041.0,Developed
585,AUS,Australia,McArthur River Mine,78.0,-16.4335,136.0935,Gas,53690.0,25687041.0,Developed
586,AUS,Australia,McKay Creek (Mount Beauty Hydro Scheme),150.0,-36.8584,147.2345,Hydro,53690.0,25687041.0,Developed
587,AUS,Australia,Meadowbank,40.0,-42.6112,146.8457,Hydro,53690.0,25687041.0,Developed
588,AUS,Australia,Meekatharra,2.9,-26.5952,118.483,Oil,53690.0,25687041.0,Developed
589,AUS,Australia,Melbourne,1.2,-37.8086,144.9685,Gas,53690.0,25687041.0,Developed
590,AUS,Australia,Merredin,82.0,-31.5423,118.227,Gas,53690.0,25687041.0,Developed
591,AUS,Australia,Mica Creek,325.0,-20.7776,139.4906,Gas,53690.0,25687041.0,Developed
592,AUS,Australia,Millmerran,856.0,-27.9615,151.2789,Coal,53690.0,25687041.0,Developed
593,AUS,Australia,Mintaro,90.0,-33.9031,138.7383,Gas,53690.0,25687041.0,Developed
594,AUS,Australia,Moorabool North Wind Farm,131.0,-37.655,144.1913,Wind,53690.0,25687041.0,Developed
595,AUS,Australia,Moorabool South Wind Farm,131.0,-37.7402,144.1622,Wind,53690.0,25687041.0,Developed
596,AUS,Australia,Moranbah,12.56,-21.9851,148.0246,Gas,53690.0,25687041.0,Developed
597,AUS,Australia,Moranbah North,45.7,-21.8967,147.9507,Gas,53690.0,25687041.0,Developed
598,AUS,Australia,Moree,60.0,-29.5722,149.8669,Solar,53690.0,25687041.0,Developed
599,AUS,Australia,Mornington,1.0,-38.3916,144.8553,Waste,53690.0,25687041.0,Developed
600,AUS,Australia,Mortlake,566.0,-38.0632,142.6675,Gas,53690.0,25687041.0,Developed
601,AUS,Australia,Mortons Lane Wind Farm,20.0,-37.8413,142.4653,Wind,53690.0,25687041.0,Developed
602,AUS,Australia,Mount Keith Nickel Mine,112.0,-27.2146,120.548,Gas,53690.0,25687041.0,Developed
603,AUS,Australia,Mount Magnet,1.9,-28.0871,117.8327,Gas,53690.0,25687041.0,Developed
604,AUS,Australia,Mount Millar Wind Farm,70.0,-33.6255,136.7039,Wind,53690.0,25687041.0,Developed
605,AUS,Australia,Mount Stuart,423.0,-19.338,146.8512,Oil,53690.0,25687041.0,Developed
606,AUS,Australia,Mt Gambier,10.0,-37.8388,140.8057,Biomass,53690.0,25687041.0,Developed
607,AUS,Australia,Mt Gellibrand Wind Farm,189.0,-38.2587,143.8019,Wind,53690.0,25687041.0,Developed
608,AUS,Australia,Mt Mercer Wind Farm,131.0,-37.8317,143.8892,Wind,53690.0,25687041.0,Developed
609,AUS,Australia,Mt Piper,1400.0,-33.3589,150.0313,Coal,53690.0,25687041.0,Developed
610,AUS,Australia,Mugga Lane,3.5,-35.3953,149.1458,Waste,53690.0,25687041.0,Developed
611,AUS,Australia,Mugga Lane Solar Park,13.0,-35.3989,149.146,Solar,53690.0,25687041.0,Developed
612,AUS,Australia,Muja C,400.0,-33.446,116.3062,Coal,53690.0,25687041.0,Developed
613,AUS,Australia,Muja D,454.0,-33.4464,116.3074,Coal,53690.0,25687041.0,Developed
614,AUS,Australia,Mulgrave,13.0,-17.0932,145.7887,Biomass,53690.0,25687041.0,Developed
615,AUS,Australia,Mumbida Wind Farm,55.0,-28.9918,114.9599,Wind,53690.0,25687041.0,Developed
616,AUS,Australia,Mungarra,112.0,-28.8893,115.1177,Gas,53690.0,25687041.0,Developed
617,AUS,Australia,Mungullah,18.0,-24.8911,113.7095,Gas,53690.0,25687041.0,Developed
618,AUS,Australia,Munmorah,600.0,-33.2117,151.5418,Coal,53690.0,25687041.0,Developed
619,AUS,Australia,Murra Warra Wind Farm,429.0,-36.4333,142.3182,Wind,53690.0,25687041.0,Developed
620,AUS,Australia,Murray 1,950.0,-36.2467,148.1901,Hydro,53690.0,25687041.0,Developed
621,AUS,Australia,Murray 2,552.0,-36.2423,148.1362,Hydro,53690.0,25687041.0,Developed
622,AUS,Australia,Murrin Murrin (Nickel Mine),78.0,-28.9238,121.3293,Gas,53690.0,25687041.0,Developed
623,AUS,Australia,Musselroe,168.0,-40.7798,148.0097,Wind,53690.0,25687041.0,Developed
624,AUS,Australia,Narrogin Bioenergy Plant,1.0,-32.9521,117.1916,Biomass,53690.0,25687041.0,Developed
625,AUS,Australia,Narromine,15.0,-32.224,148.256,Solar,53690.0,25687041.0,Developed
626,AUS,Australia,Neerabup,330.0,-31.6712,115.8021,Gas,53690.0,25687041.0,Developed
627,AUS,Australia,Newman Iron Ore Mine,170.0,-23.3443,119.7086,Gas,53690.0,25687041.0,Developed
628,AUS,Australia,Newport,500.0,-37.8415,144.8942,Gas,53690.0,25687041.0,Developed
629,AUS,Australia,Nhulunbuy,24.0,-12.1889,136.6872,Oil,53690.0,25687041.0,Developed
630,AUS,Australia,Nieterana,2.2,-42.2686,146.2629,Hydro,53690.0,25687041.0,Developed
631,AUS,Australia,Nine Network,3.2,-33.811,151.1966,Oil,53690.0,25687041.0,Developed
632,AUS,Australia,Noranda,1.1,-31.8654,115.8773,Waste,53690.0,25687041.0,Developed
633,AUS,Australia,Normanton,4.5,-17.681,141.05,Solar,53690.0,25687041.0,Developed
634,AUS,Australia,Norseman Mine,9.0,-32.1963,121.7943,Oil,53690.0,25687041.0,Developed
635,AUS,Australia,North Brown Hill  Wind Farm,132.3,-33.3093,138.7296,Wind,53690.0,25687041.0,Developed
636,AUS,Australia,North Sydney,2.4,-33.8398,151.2069,Gas,53690.0,25687041.0,Developed
637,AUS,Australia,Northam,10.0,-31.652,116.711,Solar,53690.0,25687041.0,Developed
638,AUS,Australia,Numurkah Solar Farm,100.0,-36.1592,145.4746,Solar,53690.0,25687041.0,Developed
639,AUS,Australia,Nymboida,33.6,-29.9257,152.7417,Hydro,53690.0,25687041.0,Developed
640,AUS,Australia,Nyngan Solar Plant,102.0,-31.5527,147.0854,Solar,53690.0,25687041.0,Developed
641,AUS,Australia,Oakey,282.0,-27.4183,151.6797,Gas,53690.0,25687041.0,Developed
642,AUS,Australia,Oakey 1,25.0,-27.406,151.647,Solar,53690.0,25687041.0,Developed
643,AUS,Australia,Oakey 2,55.0,-27.412,151.655,Solar,53690.0,25687041.0,Developed
644,AUS,Australia,Oakland Hills Wind Farm,67.0,-37.6871,142.5467,Wind,53690.0,25687041.0,Developed
645,AUS,Australia,Oaky,4.8,-30.5751,152.069,Hydro,53690.0,25687041.0,Developed
646,AUS,Australia,Oaky Creek,20.0,-22.9878,148.5817,Gas,53690.0,25687041.0,Developed
647,AUS,Australia,Onslow,3.6,-21.6582,115.099,Gas,53690.0,25687041.0,Developed
648,AUS,Australia,Ord River,30.0,-16.1201,128.7383,Hydro,53690.0,25687041.0,Developed
649,AUS,Australia,Osborne,180.0,-34.798,138.5079,Gas,53690.0,25687041.0,Developed
650,AUS,Australia,Owen Springs,36.0,-23.8636,133.8255,Gas,53690.0,25687041.0,Developed
651,AUS,Australia,Paloona,28.0,-41.2826,146.249,Hydro,53690.0,25687041.0,Developed
652,AUS,Australia,Paraburdoo,155.0,-23.2233,117.6133,Gas,53690.0,25687041.0,Developed
653,AUS,Australia,Paraburdoo (Standby),20.0,-23.2238,117.6137,Gas,53690.0,25687041.0,Developed
654,AUS,Australia,Parkes Solar Farm,66.0,-33.1027,148.075,Solar,53690.0,25687041.0,Developed
655,AUS,Australia,Pedler Creek,3.0,-35.2023,138.5021,Waste,53690.0,25687041.0,Developed
656,AUS,Australia,Pelican Point,478.0,-34.765,138.5053,Gas,53690.0,25687041.0,Developed
657,AUS,Australia,Perth Zoo,2.37,-31.9767,115.8548,Solar,53690.0,25687041.0,Developed
658,AUS,Australia,Peterborough SA,4.9,-32.945,138.905,Solar,53690.0,25687041.0,Developed
659,AUS,Australia,Pindari,6.7,-29.3886,151.2442,Hydro,53690.0,25687041.0,Developed
660,AUS,Australia,Pine Creek,34.76,-13.7856,131.8624,Gas,53690.0,25687041.0,Developed
661,AUS,Australia,Pinjar,576.0,-31.5568,115.8204,Gas,53690.0,25687041.0,Developed
662,AUS,Australia,Pinjarra Bauxite Mine and Alumina Refinery,280.0,-32.6473,115.9469,Gas,53690.0,25687041.0,Developed
663,AUS,Australia,Pioneer Sugar Mill,67.8,-19.5575,147.3308,Biomass,53690.0,25687041.0,Developed
664,AUS,Australia,Plane Creek Sugar Mill,14.0,-21.4282,149.2159,Biomass,53690.0,25687041.0,Developed
665,AUS,Australia,Plutonic Gold Mine,28.0,-25.311,119.4508,Gas,53690.0,25687041.0,Developed
666,AUS,Australia,Poatina,100.0,-41.8115,146.9192,Hydro,53690.0,25687041.0,Developed
667,AUS,Australia,Port Hedland,126.0,-20.4283,118.5498,Gas,53690.0,25687041.0,Developed
668,AUS,Australia,Port Hedland (Smaller),84.0,-20.3782,118.5384,Gas,53690.0,25687041.0,Developed
669,AUS,Australia,Port Lincoln,73.5,-34.7003,135.8044,Oil,53690.0,25687041.0,Developed
670,AUS,Australia,Port Stanvac,57.6,-35.1104,138.4915,Oil,53690.0,25687041.0,Developed
671,AUS,Australia,Proserpine Sugar Mill,17.0,-20.3985,148.5797,Biomass,53690.0,25687041.0,Developed
672,AUS,Australia,Quarantine,224.0,-34.7793,138.5224,Gas,53690.0,25687041.0,Developed
673,AUS,Australia,Racecourse Mill,3.5,-21.1635,149.1344,Biomass,53690.0,25687041.0,Developed
674,AUS,Australia,Ravensthorpe,56.0,-33.61,120.36,Oil,53690.0,25687041.0,Developed
675,AUS,Australia,Red Hill,3.65,-31.8317,116.0992,Waste,53690.0,25687041.0,Developed
676,AUS,Australia,Redbank,150.0,-32.5802,151.0719,Coal,53690.0,25687041.0,Developed
677,AUS,Australia,Reece,238.0,-41.7238,145.1359,Hydro,53690.0,25687041.0,Developed
678,AUS,Australia,Remount,2.2,-41.395,147.1554,Waste,53690.0,25687041.0,Developed
679,AUS,Australia,Repulse,28.0,-42.5077,146.647,Hydro,53690.0,25687041.0,Developed
680,AUS,Australia,Revesby Workers Club,2.5,-33.9534,151.0137,Oil,53690.0,25687041.0,Developed
681,AUS,Australia,Rochedale,4.0,-27.5591,153.1236,Waste,53690.0,25687041.0,Developed
682,AUS,Australia,Rockingham,2.1,-32.2863,115.8154,Waste,53690.0,25687041.0,Developed
683,AUS,Australia,Rocky Point Sugar Sugar Mill,30.0,-27.7334,153.3276,Biomass,53690.0,25687041.0,Developed
684,AUS,Australia,Roghan Road,2.0,-27.3388,153.0344,Waste,53690.0,25687041.0,Developed
685,AUS,Australia,Rollingstone QLD,125.0,-19.03,146.394,Solar,53690.0,25687041.0,Developed
686,AUS,Australia,Roma,80.0,-26.5772,148.8402,Gas,53690.0,25687041.0,Developed
687,AUS,Australia,Ron Goodin,44.6,-23.7091,133.8912,Gas,53690.0,25687041.0,Developed
688,AUS,Australia,Ross River,148.0,-19.424,146.715,Solar,53690.0,25687041.0,Developed
689,AUS,Australia,Rowallan,10.5,-41.7295,146.2176,Hydro,53690.0,25687041.0,Developed
690,AUS,Australia,Roy Hill,6.0,-22.4812,119.9472,Oil,53690.0,25687041.0,Developed
691,AUS,Australia,Royalla Solar Farm,20.0,-35.4897,149.1435,Solar,53690.0,25687041.0,Developed
692,AUS,Australia,Rubicon,13.55,-37.3272,145.8605,Hydro,53690.0,25687041.0,Developed
693,AUS,Australia,Rugby Run Solar Farm,65.0,-22.1405,147.9188,Solar,53690.0,25687041.0,Developed
694,AUS,Australia,Sapphire Wind Farm,270.0,-29.6997,151.4119,Wind,53690.0,25687041.0,Developed
695,AUS,Australia,Savannah Nickel Mine,10.8,-17.3631,128.0331,Oil,53690.0,25687041.0,Developed
696,AUS,Australia,Shenton Park WMRC Project,1.0,-31.9577,115.7924,Waste,53690.0,25687041.0,Developed
697,AUS,Australia,Shepparton Biogas Generation Plant,1.1,-36.3218,145.379,Waste,53690.0,25687041.0,Developed
698,AUS,Australia,Smithfield Energy,170.9,-33.85,150.9495,Gas,53690.0,25687041.0,Developed
699,AUS,Australia,Snowtown North,148.0,-33.714,138.1402,Wind,53690.0,25687041.0,Developed
700,AUS,Australia,Snowtown South,126.0,-33.8302,138.1184,Wind,53690.0,25687041.0,Developed
701,AUS,Australia,Snuggery,63.0,-37.6646,140.4156,Gas,53690.0,25687041.0,Developed
702,AUS,Australia,Solomon Iron Ore Mine,125.0,-22.1581,117.9849,Gas,53690.0,25687041.0,Developed
703,AUS,Australia,Somerton,160.0,-37.6318,144.9531,Gas,53690.0,25687041.0,Developed
704,AUS,Australia,South Cardup (Shale Road Landfill),3.3,-32.2664,116.0193,Waste,53690.0,25687041.0,Developed
705,AUS,Australia,South Johnstone,20.0,-17.6057,145.991,Biomass,53690.0,25687041.0,Developed
706,AUS,Australia,Springvale,4.2,-37.9733,145.1396,Waste,53690.0,25687041.0,Developed
707,AUS,Australia,St George Leagues Club,1.0,-33.9748,151.1294,Oil,53690.0,25687041.0,Developed
708,AUS,Australia,Stanwell,1460.0,-23.5097,150.3195,Coal,53690.0,25687041.0,Developed
709,AUS,Australia,Stapylton Green Energy,4.8,-27.7334,153.2463,Biomass,53690.0,25687041.0,Developed
710,AUS,Australia,Starfish Hill Wind Farm,34.5,-35.5678,138.1432,Wind,53690.0,25687041.0,Developed
711,AUS,Australia,Studland Bay (Woolnorth) Wind Farm,75.0,-40.7788,144.7362,Wind,53690.0,25687041.0,Developed
712,AUS,Australia,Summerhill,5.0,-32.891,151.65,Solar,53690.0,25687041.0,Developed
713,AUS,Australia,Summerhill,2.2,-32.8885,151.643,Waste,53690.0,25687041.0,Developed
714,AUS,Australia,Sun Metals Solar Farm,124.0,-19.3355,146.8885,Solar,53690.0,25687041.0,Developed
715,AUS,Australia,Suncoast Gold Macadamia,1.5,-26.2261,152.6981,Biomass,53690.0,25687041.0,Developed
716,AUS,Australia,Sunraysia,200.0,-34.804,143.491,Solar,53690.0,25687041.0,Developed
717,AUS,Australia,Sunrise Dam,28.4,-29.0927,122.4393,Gas,53690.0,25687041.0,Developed
718,AUS,Australia,Susan River,98.0,-25.32,152.405,Solar,53690.0,25687041.0,Developed
719,AUS,Australia,Swan Hill,19.0,-35.342,143.518,Solar,53690.0,25687041.0,Developed
720,AUS,Australia,Swanbank E,385.0,-27.6554,152.8179,Gas,53690.0,25687041.0,Developed
721,AUS,Australia,Symex Port Melbourne,5.9,-37.8298,144.9444,Gas,53690.0,25687041.0,Developed
722,AUS,Australia,Tableland,7.0,-17.1193,145.345,Biomass,53690.0,25687041.0,Developed
723,AUS,Australia,Tahmoor,7.0,-34.2482,150.5808,Gas,53690.0,25687041.0,Developed
724,AUS,Australia,Tailem Bend Solar Farm,95.0,-35.2708,139.4924,Solar,53690.0,25687041.0,Developed
725,AUS,Australia,Tallawarra,460.0,-34.5228,150.8081,Gas,53690.0,25687041.0,Developed
726,AUS,Australia,Tamala Park,4.65,-31.7078,115.7266,Waste,53690.0,25687041.0,Developed
727,AUS,Australia,Tamar Valley,390.0,-41.1401,146.9036,Gas,53690.0,25687041.0,Developed
728,AUS,Australia,Taralga Wind Farm,107.0,-34.4314,149.8652,Wind,53690.0,25687041.0,Developed
729,AUS,Australia,Tarong,1400.0,-26.7824,151.9153,Coal,53690.0,25687041.0,Developed
730,AUS,Australia,Tarong (Oil),15.0,-26.7858,151.9172,Oil,53690.0,25687041.0,Developed
731,AUS,Australia,Tarong North,443.0,-26.7758,151.9146,Coal,53690.0,25687041.0,Developed
732,AUS,Australia,Tarraleah,90.0,-42.3012,146.4572,Hydro,53690.0,25687041.0,Developed
733,AUS,Australia,Tatura Biogas Generation Plant,1.1,-36.4793,145.235,Waste,53690.0,25687041.0,Developed
734,AUS,Australia,Tea Tree Gully,1.0,-34.8303,138.7129,Waste,53690.0,25687041.0,Developed
735,AUS,Australia,Telfer Gold Mine,159.0,-21.7129,122.2091,Gas,53690.0,25687041.0,Developed
736,AUS,Australia,Tennant Creek,16.7,-19.6549,134.1753,Gas,53690.0,25687041.0,Developed
737,AUS,Australia,Teralba,3.0,-32.9455,151.6119,Gas,53690.0,25687041.0,Developed
738,AUS,Australia,Terminal Storage,2.5,-34.8393,138.7112,Hydro,53690.0,25687041.0,Developed
739,AUS,Australia,The Drop,3.0,-35.6043,145.7837,Hydro,53690.0,25687041.0,Developed
740,AUS,Australia,Ti Tree Bioenergy,3.3,-27.6802,152.6593,Waste,53690.0,25687041.0,Developed
741,AUS,Australia,Timber Creek,1.0,-15.6562,130.479,Oil,53690.0,25687041.0,Developed
742,AUS,Australia,Tods Corner,1.7,-41.9707,146.7938,Hydro,53690.0,25687041.0,Developed
743,AUS,Australia,Tomago Aluminium Smelter,810.0,-32.8217,151.7178,Gas,53690.0,25687041.0,Developed
744,AUS,Australia,Toora Wind Farm,21.0,-38.6451,146.3441,Wind,53690.0,25687041.0,Developed
745,AUS,Australia,Torrens Island A,480.0,-34.8068,138.5213,Gas,53690.0,25687041.0,Developed
746,AUS,Australia,Torrens Island B,800.0,-34.8052,138.5226,Gas,53690.0,25687041.0,Developed
747,AUS,Australia,Tower Mine,41.2,-34.2207,150.7179,Gas,53690.0,25687041.0,Developed
748,AUS,Australia,Townsville,220.0,-19.2011,146.6187,Gas,53690.0,25687041.0,Developed
749,AUS,Australia,Traralgon Network Support Station,10.0,-38.1793,146.5654,Waste,53690.0,25687041.0,Developed
750,AUS,Australia,Trevallyn,80.0,-41.4226,147.1119,Hydro,53690.0,25687041.0,Developed
751,AUS,Australia,Tribute,82.8,-41.8129,145.6538,Hydro,53690.0,25687041.0,Developed
752,AUS,Australia,Tully Sugar Mill,21.4,-17.9373,145.9267,Biomass,53690.0,25687041.0,Developed
753,AUS,Australia,Tumut 1 (Upper Tumut),616.0,-35.9517,148.3637,Hydro,53690.0,25687041.0,Developed
754,AUS,Australia,Tumut 2 (Upper Tumut),336.0,-35.8814,148.3672,Hydro,53690.0,25687041.0,Developed
755,AUS,Australia,Tumut 3,1500.0,-35.6112,148.2917,Hydro,53690.0,25687041.0,Developed
756,AUS,Australia,Tungatinah,125.0,-42.2967,146.4565,Hydro,53690.0,25687041.0,Developed
757,AUS,Australia,University of Queensland (St Lucia Campus) Solar Array,1.2,-27.495,153.0101,Solar,53690.0,25687041.0,Developed
758,AUS,Australia,Upper Lake Margaret,8.4,-42.0046,145.5437,Hydro,53690.0,25687041.0,Developed
759,AUS,Australia,Uranquinty,664.0,-35.1794,147.2157,Gas,53690.0,25687041.0,Developed
760,AUS,Australia,Uterne Solar,1.0,-23.7685,133.8682,Solar,53690.0,25687041.0,Developed
761,AUS,Australia,Valdora,15.0,-26.56,153.025,Solar,53690.0,25687041.0,Developed
762,AUS,Australia,Vales Point B,1360.0,-33.1607,151.5431,Coal,53690.0,25687041.0,Developed
763,AUS,Australia,Valley (Peaking Facility),300.0,-38.2536,146.5892,Gas,53690.0,25687041.0,Developed
764,AUS,Australia,Victoria Sugar Mill,24.0,-18.6508,146.2016,Biomass,53690.0,25687041.0,Developed
765,AUS,Australia,Visy Paper Gibson Island,2.0,-27.4405,153.1158,Biomass,53690.0,25687041.0,Developed
766,AUS,Australia,Visy Pulp and Paper Tumut,20.0,-35.2959,148.1371,Biomass,53690.0,25687041.0,Developed
767,AUS,Australia,Wadeye,6.8,-14.2602,129.5368,Gas,53690.0,25687041.0,Developed
768,AUS,Australia,Wagerup,380.0,-32.916,115.9186,Gas,53690.0,25687041.0,Developed
769,AUS,Australia,Wagerup Bauxite Mine and Alumina Refinery,98.0,-32.9145,115.917,Gas,53690.0,25687041.0,Developed
770,AUS,Australia,Walkaway Wind Farm,90.0,-28.9229,114.9282,Wind,53690.0,25687041.0,Developed
771,AUS,Australia,Wallerawang C,500.0,-33.4028,150.0833,Coal,53690.0,25687041.0,Developed
772,AUS,Australia,Warmun,1.3,-17.0259,128.2113,Oil,53690.0,25687041.0,Developed
773,AUS,Australia,Warragamba,50.0,-33.8832,150.5965,Hydro,53690.0,25687041.0,Developed
774,AUS,Australia,Warrego,19.0,-19.4434,133.8236,Gas,53690.0,25687041.0,Developed
775,AUS,Australia,Waterloo Wind Farm,111.0,-34.001,138.9109,Wind,53690.0,25687041.0,Developed
776,AUS,Australia,Wattle Point Wind Farm,90.75,-35.1104,137.7058,Wind,53690.0,25687041.0,Developed
777,AUS,Australia,Waubra Wind Farm,192.0,-37.3575,143.6037,Wind,53690.0,25687041.0,Developed
778,AUS,Australia,Wayatinah,38.3,-42.4272,146.5347,Hydro,53690.0,25687041.0,Developed
779,AUS,Australia,Weddell,86.0,-12.5771,130.9502,Gas,53690.0,25687041.0,Developed
780,AUS,Australia,Wemen Solar Farm,110.0,-34.8027,142.5457,Solar,53690.0,25687041.0,Developed
781,AUS,Australia,West Angelas Mine,86.0,-23.1546,118.7245,Gas,53690.0,25687041.0,Developed
782,AUS,Australia,West Illawarra Leagues Club,1.0,-34.4515,150.8429,Oil,53690.0,25687041.0,Developed
783,AUS,Australia,West Kalgoorlie,60.0,-30.7806,121.4234,Oil,53690.0,25687041.0,Developed
784,AUS,Australia,West Kiewa (Mount Beauty Hydro Scheme),62.0,-36.7601,147.186,Hydro,53690.0,25687041.0,Developed
785,AUS,Australia,West Nowra (Shoalhaven),1.0,-34.882,150.5515,Waste,53690.0,25687041.0,Developed
786,AUS,Australia,Western Suburbs Leagues Club (Campbelltown),1.0,-34.0513,150.8329,Oil,53690.0,25687041.0,Developed
787,AUS,Australia,White Rock,20.0,-29.765,151.553,Solar,53690.0,25687041.0,Developed
788,AUS,Australia,Whitsunday Solar Farm,69.0,-20.4949,147.7481,Solar,53690.0,25687041.0,Developed
789,AUS,Australia,Whitwood Road,1.0,-27.659,152.8237,Waste,53690.0,25687041.0,Developed
790,AUS,Australia,Whyalla SSE,6.0,-33.007,137.558,Solar,53690.0,25687041.0,Developed
791,AUS,Australia,Wilga Park,16.0,-30.3634,149.6772,Gas,53690.0,25687041.0,Developed
792,AUS,Australia,Williamsdale,7.0,-35.571,149.128,Solar,53690.0,25687041.0,Developed
793,AUS,Australia,Wilmot,81.6,-41.4833,146.1251,Hydro,53690.0,25687041.0,Developed
794,AUS,Australia,Wilpena Solar Farm,145.0,-31.5234,138.6198,Solar,53690.0,25687041.0,Developed
795,AUS,Australia,Wiluna,1.3,-26.5922,120.2185,Oil,53690.0,25687041.0,Developed
796,AUS,Australia,Wiluna Gold Mine,21.0,-26.6316,120.2519,Gas,53690.0,25687041.0,Developed
797,AUS,Australia,Windimurra Vanadium Mine,23.7,-28.2933,118.5371,Gas,53690.0,25687041.0,Developed
798,AUS,Australia,Windy Hill Wind Farm,12.0,-17.5922,145.5306,Wind,53690.0,25687041.0,Developed
799,AUS,Australia,Wingfield I,5.0,-34.8348,138.5572,Waste,53690.0,25687041.0,Developed
800,AUS,Australia,Wingfield II,5.0,-34.8321,138.5489,Waste,53690.0,25687041.0,Developed
801,AUS,Australia,Wivenhoe,4.7,-27.3952,152.6092,Hydro,53690.0,25687041.0,Developed
802,AUS,Australia,Wivenhoe Hydroelectric,500.0,-27.3722,152.632,Hydro,53690.0,25687041.0,Developed
803,AUS,Australia,Wodgina,13.7,-21.1739,118.6747,Gas,53690.0,25687041.0,Developed
804,AUS,Australia,Wollert,6.7379999999999995,-37.583,145.0487,Waste,53690.0,25687041.0,Developed
805,AUS,Australia,Wonthaggi Wind Farm,12.0,-38.6037,145.5462,Wind,53690.0,25687041.0,Developed
806,AUS,Australia,Woodlawn Bioreactor,7.0,-35.059,149.5769,Waste,53690.0,25687041.0,Developed
807,AUS,Australia,Woodlawn Wind Farm,48.0,-35.0861,149.5716,Wind,53690.0,25687041.0,Developed
808,AUS,Australia,Woodman Point,1.8,-32.1424,115.7713,Waste,53690.0,25687041.0,Developed
809,AUS,Australia,Worsley,120.0,-33.2355,116.0688,Coal,53690.0,25687041.0,Developed
810,AUS,Australia,Worsley Cogeneration,106.0,-33.2365,116.0637,Gas,53690.0,25687041.0,Developed
811,AUS,Australia,Wyangala A,20.0,-33.981,148.9473,Hydro,53690.0,25687041.0,Developed
812,AUS,Australia,Wyndham,1.0,-37.9375,144.5902,Waste,53690.0,25687041.0,Developed
813,AUS,Australia,Xstata X41,30.0,-20.7437,139.4803,Gas,53690.0,25687041.0,Developed
814,AUS,Australia,Yallourn,1480.0,-38.177,146.3428,Coal,53690.0,25687041.0,Developed
815,AUS,Australia,Yaloak South Wind Farm,131.0,-37.7281,144.2408,Wind,53690.0,25687041.0,Developed
816,AUS,Australia,Yambuk Wind Farm,30.0,-38.3079,142.0151,Wind,53690.0,25687041.0,Developed
817,AUS,Australia,Yarrawonga,9.0,-36.0094,145.9995,Hydro,53690.0,25687041.0,Developed
818,AUS,Australia,Yarwun,154.0,-23.8306,151.1519,Gas,53690.0,25687041.0,Developed
819,AUS,Australia,Yatpool,81.0,-34.407,142.179,Solar,53690.0,25687041.0,Developed
820,AUS,Australia,Yulara,10.95,-25.2323,130.9912,Gas,53690.0,25687041.0,Developed
821,AUS,Australia,Yurralyi Maya (Karratha Seven Mile),180.0,-20.762,116.742,Gas,53690.0,25687041.0,Developed
822,AUT,Austria,Abwinden-Asten,168.0,48.248,14.4305,Hydro,48350.0,8917205.0,Developed
823,AUT,Austria,Altenmarkt,26.0,46.7667,15.55,Hydro,48350.0,8917205.0,Developed
824,AUT,Austria,Arnstein,30.0,47.0167,15.1667,Hydro,48350.0,8917205.0,Developed
825,AUT,Austria,Aschach,287.0,48.3853,14.023,Hydro,48350.0,8917205.0,Developed
826,AUT,Austria,Bischofshofen,16.0,47.407,13.2205,Hydro,48350.0,8917205.0,Developed
827,AUT,Austria,Braunau-Simbach,100.0,48.244,13.006,Hydro,48350.0,8917205.0,Developed
828,AUT,Austria,Dionysen,16.0,47.4167,15.2833,Hydro,48350.0,8917205.0,Developed
829,AUT,Austria,Donaustadt,395.0,48.2,16.4633,Gas,48350.0,8917205.0,Developed
830,AUT,Austria,Ering-Frauenstein,72.0,48.2194,13.16,Hydro,48350.0,8917205.0,Developed
831,AUT,Austria,Erzbach,1.0,47.6,14.7333,Hydro,48350.0,8917205.0,Developed
832,AUT,Austria,Feistritz-Ludmannsdorf,88.0,46.5347,14.1712,Hydro,48350.0,8917205.0,Developed
833,AUT,Austria,Feldkirchen,38.0,46.8638,13.3355,Hydro,48350.0,8917205.0,Developed
834,AUT,Austria,Ferlach Maria Rain,75.0,46.5462,14.2985,Hydro,48350.0,8917205.0,Developed
835,AUT,Austria,Fisching,22.0,47.1667,14.7333,Hydro,48350.0,8917205.0,Developed
836,AUT,Austria,Freudenau Danube,172.0,48.1764,16.4811,Hydro,48350.0,8917205.0,Developed
837,AUT,Austria,Friesach,12.0,47.1667,15.3333,Hydro,48350.0,8917205.0,Developed
838,AUT,Austria,Funsingau,25.0,47.2354,12.0583,Hydro,48350.0,8917205.0,Developed
839,AUT,Austria,Gabersdorf,14.0,46.7772,15.5842,Hydro,48350.0,8917205.0,Developed
840,AUT,Austria,Gaming,14.0,48.1766,16.4813,Hydro,48350.0,8917205.0,Developed
841,AUT,Austria,Gerlos,200.0,47.2342,11.8997,Hydro,48350.0,8917205.0,Developed
842,AUT,Austria,Gratkorn,11.0,47.1333,15.35,Hydro,48350.0,8917205.0,Developed
843,AUT,Austria,Greifenstein,293.0,48.3553,16.2424,Hydro,48350.0,8917205.0,Developed
844,AUT,Austria,Hieflau,63.0,47.6,14.7333,Hydro,48350.0,8917205.0,Developed
845,AUT,Austria,Hieflau-Erzbach,1.0,47.6,14.7333,Hydro,48350.0,8917205.0,Developed
846,AUT,Austria,Jochenstein,132.0,48.5184,13.7076,Hydro,48350.0,8917205.0,Developed
847,AUT,Austria,KW Amlach,60.0,46.8142,12.7618,Hydro,48350.0,8917205.0,Developed
848,AUT,Austria,KW Imst,89.0,47.2122,10.7215,Hydro,48350.0,8917205.0,Developed
849,AUT,Austria,KW Jenbach,79.0,47.3932,11.7886,Hydro,48350.0,8917205.0,Developed
850,AUT,Austria,KW Kaunertal,392.0,47.0678,10.6652,Hydro,48350.0,8917205.0,Developed
851,AUT,Austria,KW Kühtai,289.0,47.2078,11.0057,Hydro,48350.0,8917205.0,Developed
852,AUT,Austria,KW Silz,500.0,47.2696,10.9678,Hydro,48350.0,8917205.0,Developed
853,AUT,Austria,Kaprun Limberg II,480.0,47.1985,12.7223,Hydro,48350.0,8917205.0,Developed
854,AUT,Austria,Kaprun Oberstufe,113.0,47.1968,12.7192,Hydro,48350.0,8917205.0,Developed
855,AUT,Austria,Kaprun main stage,240.0,47.2591,12.7389,Hydro,48350.0,8917205.0,Developed
856,AUT,Austria,Kellerberg,25.0,46.67,13.6886,Hydro,48350.0,8917205.0,Developed
857,AUT,Austria,Klammsee,1.0,47.2591,12.7389,Hydro,48350.0,8917205.0,Developed
858,AUT,Austria,Klaus,20.0,47.8314,14.1572,Hydro,48350.0,8917205.0,Developed
859,AUT,Austria,Kopswerk II,525.0,46.975,10.043,Hydro,48350.0,8917205.0,Developed
860,AUT,Austria,Kreuzbergmaut,18.0,47.4412,13.2108,Hydro,48350.0,8917205.0,Developed
861,AUT,Austria,Kreuzeck days storage,45.0,46.8727,13.3117,Hydro,48350.0,8917205.0,Developed
862,AUT,Austria,Krippau,30.0,47.6833,14.7,Hydro,48350.0,8917205.0,Developed
863,AUT,Austria,Landl,25.0,47.65,14.7167,Hydro,48350.0,8917205.0,Developed
864,AUT,Austria,Laufnitzdorf,18.0,47.3,15.3167,Hydro,48350.0,8917205.0,Developed
865,AUT,Austria,Lebring,20.0,46.8522,15.5383,Hydro,48350.0,8917205.0,Developed
866,AUT,Austria,Leoben,10.0,47.3833,15.1,Hydro,48350.0,8917205.0,Developed
867,AUT,Austria,Losenstein,39.0,47.9243,14.4367,Hydro,48350.0,8917205.0,Developed
868,AUT,Austria,Low Tuxbach - Small power plant Stillupp,2.0,47.1485,11.8225,Hydro,48350.0,8917205.0,Developed
869,AUT,Austria,Lünerseewerk,280.0,47.074,9.874,Hydro,48350.0,8917205.0,Developed
870,AUT,Austria,Malta Secondary school,120.0,47.0659,13.3539,Hydro,48350.0,8917205.0,Developed
871,AUT,Austria,Malta main stage,730.0,47.0659,13.3539,Hydro,48350.0,8917205.0,Developed
872,AUT,Austria,Mandling,6.0,47.4,13.5667,Hydro,48350.0,8917205.0,Developed
873,AUT,Austria,Mayrhofen,355.0,47.1581,11.8501,Hydro,48350.0,8917205.0,Developed
874,AUT,Austria,Melk,187.0,48.2232,15.3042,Hydro,48350.0,8917205.0,Developed
875,AUT,Austria,Mellach run power plant,16.0,46.8833,15.5167,Hydro,48350.0,8917205.0,Developed
876,AUT,Austria,Neuötting,26.1,40.1247,-8.7751,Hydro,48350.0,8917205.0,Developed
877,AUT,Austria,Niklai,2.0,46.8167,13.3167,Hydro,48350.0,8917205.0,Developed
878,AUT,Austria,Nussdorf near Vienna,5.0,47.2167,14.4833,Hydro,48350.0,8917205.0,Developed
879,AUT,Austria,Oberaudorf Ebbs,60.0,47.6413,12.1989,Hydro,48350.0,8917205.0,Developed
880,AUT,Austria,Obervermuntwerk,30.0,46.9271,10.0539,Hydro,48350.0,8917205.0,Developed
881,AUT,Austria,Obervogau,13.0,46.745,15.5847,Hydro,48350.0,8917205.0,Developed
882,AUT,Austria,Ottensheim-Wilhering,179.0,48.3166,14.1512,Hydro,48350.0,8917205.0,Developed
883,AUT,Austria,Passau-Ingling,86.0,48.5536,13.4371,Hydro,48350.0,8917205.0,Developed
884,AUT,Austria,Paternion,24.0,46.7209,13.6453,Hydro,48350.0,8917205.0,Developed
885,AUT,Austria,Peggau,13.0,47.2,15.35,Hydro,48350.0,8917205.0,Developed
886,AUT,Austria,Pernegg,22.0,47.3598,15.3424,Hydro,48350.0,8917205.0,Developed
887,AUT,Austria,Pichlern,2.0,47.65,13.6667,Hydro,48350.0,8917205.0,Developed
888,AUT,Austria,Rabenstein,14.0,47.35,13.6833,Hydro,48350.0,8917205.0,Developed
889,AUT,Austria,Retznei,1.0,46.7333,15.5667,Hydro,48350.0,8917205.0,Developed
890,AUT,Austria,Rodundwerk I,198.0,47.085,9.8813,Hydro,48350.0,8917205.0,Developed
891,AUT,Austria,Rodundwerk II,295.0,47.0847,9.8744,Hydro,48350.0,8917205.0,Developed
892,AUT,Austria,Rosegg-St. James,80.0,46.5696,14.0268,Hydro,48350.0,8917205.0,Developed
893,AUT,Austria,Rosenau,34.0,48.489,14.6288,Hydro,48350.0,8917205.0,Developed
894,AUT,Austria,Schonau,30.0,48.3946,14.7302,Hydro,48350.0,8917205.0,Developed
895,AUT,Austria,Schwabeck,79.0,46.658,14.8726,Hydro,48350.0,8917205.0,Developed
896,AUT,Austria,Schwarzach,120.0,47.3152,13.1389,Hydro,48350.0,8917205.0,Developed
897,AUT,Austria,Simmering,1272.0,48.1815,16.4334,Gas,48350.0,8917205.0,Developed
898,AUT,Austria,St. Georgen,6.0,47.5333,14.3667,Hydro,48350.0,8917205.0,Developed
899,AUT,Austria,St. Johann,16.0,47.3386,13.1974,Hydro,48350.0,8917205.0,Developed
900,AUT,Austria,St. Martin,10.0,47.4467,15.2849,Hydro,48350.0,8917205.0,Developed
901,AUT,Austria,St. Pantaleon,52.0,48.0076,12.8942,Hydro,48350.0,8917205.0,Developed
902,AUT,Austria,St. Veit,16.0,47.3214,13.1744,Hydro,48350.0,8917205.0,Developed
903,AUT,Austria,Staning,43.0,48.1007,14.4568,Hydro,48350.0,8917205.0,Developed
904,AUT,Austria,Steinfeld,1.0,46.7656,13.2717,Hydro,48350.0,8917205.0,Developed
905,AUT,Austria,Ternberg,40.0,47.9333,14.35,Hydro,48350.0,8917205.0,Developed
906,AUT,Austria,Timelkam,400.0,48.0122,13.5895,Gas,48350.0,8917205.0,Developed
907,AUT,Austria,Triebenbach,10.0,47.5,14.4667,Hydro,48350.0,8917205.0,Developed
908,AUT,Austria,Tuxbach,1.0,47.1485,11.8225,Hydro,48350.0,8917205.0,Developed
909,AUT,Austria,Urreiting,16.0,47.3749,13.2101,Hydro,48350.0,8917205.0,Developed
910,AUT,Austria,Vermuntwerk,157.0,46.9684,10.0599,Hydro,48350.0,8917205.0,Developed
911,AUT,Austria,Vienna-Freudenau,172.0,48.1766,16.4814,Hydro,48350.0,8917205.0,Developed
912,AUT,Austria,Villach,25.0,46.6329,13.8294,Hydro,48350.0,8917205.0,Developed
913,AUT,Austria,Walgauwerk,86.0,47.192,9.6815,Hydro,48350.0,8917205.0,Developed
914,AUT,Austria,Wallnerau Salzach stage,13.0,47.316,13.141,Hydro,48350.0,8917205.0,Developed
915,AUT,Austria,Wallnerau underwater stage,5.0,47.3833,12.6,Hydro,48350.0,8917205.0,Developed
916,AUT,Austria,Wallsee-Mitterkirchen,210.0,48.1666,14.6953,Hydro,48350.0,8917205.0,Developed
917,AUT,Austria,Weissenegg,1.0,46.8167,15.8667,Hydro,48350.0,8917205.0,Developed
918,AUT,Austria,Werfen-Pfarrwerfen,16.0,47.4698,13.1945,Hydro,48350.0,8917205.0,Developed
919,AUT,Austria,Weyer,37.0,48.1465,14.1176,Hydro,48350.0,8917205.0,Developed
920,AUT,Austria,Wind Park Bruck an der Leitha,9.0,48.0338,16.7264,Wind,48350.0,8917205.0,Developed
921,AUT,Austria,Wind Park Hollern II,37.0,48.09,16.844,Wind,48350.0,8917205.0,Developed
922,AUT,Austria,Wind Park Petronell-Carnuntum II,21.0,48.09,16.844,Wind,48350.0,8917205.0,Developed
923,AUT,Austria,Windpark Bruck-Göttlesbrunn,21.0,48.095,16.89,Wind,48350.0,8917205.0,Developed
924,AUT,Austria,Ybbs-Persenbeug,236.0,48.1892,15.0682,Hydro,48350.0,8917205.0,Developed
925,AZE,Azerbaijan,Astara ES,87.0,38.456,48.875,Gas,4480.0,10093121.0,Developing
926,AZE,Azerbaijan,Azerbaijan TPP,2400.0,40.78,46.9901,Oil,4480.0,10093121.0,Developing
927,AZE,Azerbaijan,Baku ES,105.0,40.3734,49.9192,Gas,4480.0,10093121.0,Developing
928,AZE,Azerbaijan,Baku TEC,107.0,40.3734,49.9192,Gas,4480.0,10093121.0,Developing
929,AZE,Azerbaijan,Gusar,1.0,41.3979,48.3308,Hydro,4480.0,10093121.0,Developing
930,AZE,Azerbaijan,Janub,780.0,39.8943,48.9173,Gas,4480.0,10093121.0,Developing
931,AZE,Azerbaijan,Khachmaz ES,87.0,41.4635,48.806,Gas,4480.0,10093121.0,Developing
932,AZE,Azerbaijan,Mingechevir,402.0,40.79,47.0287,Hydro,4480.0,10093121.0,Developing
933,AZE,Azerbaijan,Sangachal ES,299.0,40.1794,49.47,Gas,4480.0,10093121.0,Developing
934,AZE,Azerbaijan,Shamkir,405.0,40.9487,46.168,Hydro,4480.0,10093121.0,Developing
935,AZE,Azerbaijan,Shimal,400.0,40.4995,50.2077,Gas,4480.0,10093121.0,Developing
936,AZE,Azerbaijan,Sumqayit,525.0,40.6036,49.6332,Gas,4480.0,10093121.0,Developing
937,AZE,Azerbaijan,Varvara,16.0,40.6837,47.0926,Hydro,4480.0,10093121.0,Developing
938,AZE,Azerbaijan,Yenikend,150.0,40.9193,46.2829,Hydro,4480.0,10093121.0,Developing
939,BHR,Bahrain,Al Dur Power and Water,1540.0,25.9714,50.6076,Gas,19900.0,1701583.0,Developed
940,BHR,Bahrain,Al Ezzel Power Station,962.0,26.2175,50.6595,Gas,19900.0,1701583.0,Developed
941,BHR,Bahrain,Alba Power Station,2204.0,26.0945,50.6008,Gas,19900.0,1701583.0,Developed
942,BHR,Bahrain,Awali,5.0,26.1,50.58,Solar,19900.0,1701583.0,Developed
943,BHR,Bahrain,Hawar Power ad Water Station,7.3,26.1981,50.5919,Oil,19900.0,1701583.0,Developed
944,BHR,Bahrain,Hidd Power and Water station 1,963.0,26.2223,50.6621,Gas,19900.0,1701583.0,Developed
945,BHR,Bahrain,Rifa'a Power Station,700.0,26.1199,50.5889,Gas,19900.0,1701583.0,Developed
946,BHR,Bahrain,Sitra Power an Water Station,1205.0,26.1833,50.6237,Gas,19900.0,1701583.0,Developed
947,BGD,Bangladesh,Amnura,50.0,24.6301,88.4006,Oil,2030.0,164689383.0,Developing
948,BGD,Bangladesh,Ashuganj (Aggreko),1649.0,24.0426,91.0158,Gas,2030.0,164689383.0,Developing
949,BGD,Bangladesh,Baghabari GT 1,223.0,24.1361,89.5933,Gas,2030.0,164689383.0,Developing
950,BGD,Bangladesh,Barabkunda (Regent),22.0,22.5713,91.6841,Oil,2030.0,164689383.0,Developing
951,BGD,Bangladesh,Barishal GT-unit-1 2,40.0,22.6588,90.3373,Gas,2030.0,164689383.0,Developing
952,BGD,Bangladesh,Barupukuria ST 1,250.0,25.5502,88.9527,Coal,2030.0,164689383.0,Developing
953,BGD,Bangladesh,Bera Peaking,71.0,24.0895,89.6176,Oil,2030.0,164689383.0,Developing
954,BGD,Bangladesh,Bheramara GT (Unit-1 2 3),560.0,24.0487,89.0173,Oil,2030.0,164689383.0,Developing
955,BGD,Bangladesh,Bhola CCPP GT-1 2 ST,227.0,22.4786,90.7101,Gas,2030.0,164689383.0,Developing
956,BGD,Bangladesh,Bogra GBB,42.0,24.8408,89.3506,Gas,2030.0,164689383.0,Developing
957,BGD,Bangladesh,CLCPC Keranigonj,100.0,23.6473,90.3473,Oil,2030.0,164689383.0,Developing
958,BGD,Bangladesh,Chittagong Roazan,553.0,22.457,91.9784,Gas,2030.0,164689383.0,Developing
959,BGD,Bangladesh,Faridpur,54.0,23.6183,89.7733,Oil,2030.0,164689383.0,Developing
960,BGD,Bangladesh,Fenchuganj (Barakatullah),296.0,24.6863,91.9189,Gas,2030.0,164689383.0,Developing
961,BGD,Bangladesh,Feni (Doreen),33.0,23.9186,90.6926,Gas,2030.0,164689383.0,Developing
962,BGD,Bangladesh,Ghorasal ST :Unit-3,861.0,23.9797,90.637,Gas,2030.0,164689383.0,Developing
963,BGD,Bangladesh,Gopalganj,5.0,26.585,84.145,Solar,2030.0,164689383.0,Developing
964,BGD,Bangladesh,Gopalganj Peaking,109.0,23.9797,90.637,Oil,2030.0,164689383.0,Developing
965,BGD,Bangladesh,Hathazari,98.0,22.4918,91.8051,Oil,2030.0,164689383.0,Developing
966,BGD,Bangladesh,Hobiganj (Confidence-EP),11.0,24.2639,91.379,Gas,2030.0,164689383.0,Developing
967,BGD,Bangladesh,Horippur Power CCPP,946.0,23.6839,90.5314,Gas,2030.0,164689383.0,Developing
968,BGD,Bangladesh,Jamalpur RPP,95.0,24.9103,89.9607,Oil,2030.0,164689383.0,Developing
969,BGD,Bangladesh,Jangalia (Summit),85.0,23.4289,91.17,Gas,2030.0,164689383.0,Developing
970,BGD,Bangladesh,Jhulda,100.0,22.2972,91.8062,Oil,2030.0,164689383.0,Developing
971,BGD,Bangladesh,Kaptai Hydro:Unit-1 2 3 4 5,230.0,22.495,92.216,Hydro,2030.0,164689383.0,Developing
972,BGD,Bangladesh,Karanigonj (Powerpac),100.0,23.6783,90.4295,Oil,2030.0,164689383.0,Developing
973,BGD,Bangladesh,Katakhali (Peaking),100.0,24.366,88.6763,Oil,2030.0,164689383.0,Developing
974,BGD,Bangladesh,Kathpotti 52 mw,52.0,23.5699,90.4804,Oil,2030.0,164689383.0,Developing
975,BGD,Bangladesh,Khulna (KPCL-2),510.0,22.8646,89.5357,Gas,2030.0,164689383.0,Developing
976,BGD,Bangladesh,Kodda Gajipur,149.0,23.9904,90.3429,Oil,2030.0,164689383.0,Developing
977,BGD,Bangladesh,Madanganj (Summit),157.0,23.59,90.5153,Oil,2030.0,164689383.0,Developing
978,BGD,Bangladesh,Meghnaghat CCPP,855.0,23.6112,90.6007,Gas,2030.0,164689383.0,Developing
979,BGD,Bangladesh,Mymensingh,210.0,24.7611,90.4193,Gas,2030.0,164689383.0,Developing
980,BGD,Bangladesh,Narshingdi (Doreen),22.0,23.9186,90.6926,Oil,2030.0,164689383.0,Developing
981,BGD,Bangladesh,Noapara (khanjahan ali),40.0,22.3602,91.7812,Oil,2030.0,164689383.0,Developing
982,BGD,Bangladesh,Northen 55 MW,55.0,23.8094,90.2433,Oil,2030.0,164689383.0,Developing
983,BGD,Bangladesh,Pagla (DPA),50.0,23.6584,90.4584,Oil,2030.0,164689383.0,Developing
984,BGD,Bangladesh,Patenga 50 MW,50.0,22.2385,91.8129,Oil,2030.0,164689383.0,Developing
985,BGD,Bangladesh,Rangpur GT,20.0,25.7233,89.2432,Oil,2030.0,164689383.0,Developing
986,BGD,Bangladesh,Santahar Peaking,50.0,24.7972,88.9839,Oil,2030.0,164689383.0,Developing
987,BGD,Bangladesh,Shahjibazar 330 MW,536.0,24.2532,91.3751,Gas,2030.0,164689383.0,Developing
988,BGD,Bangladesh,Shiddirganj ST,210.0,23.6846,90.517,Gas,2030.0,164689383.0,Developing
989,BGD,Bangladesh,Shikalbaha Peaking (GT),261.0,22.3227,91.8651,Oil,2030.0,164689383.0,Developing
990,BGD,Bangladesh,Siddhirganj (Dutch Bangla),520.0,24.3884,89.7436,Gas,2030.0,164689383.0,Developing
991,BGD,Bangladesh,Siddirgonj (Desh),96.0,23.6825,90.5252,Oil,2030.0,164689383.0,Developing
992,BGD,Bangladesh,Summit Barisal 110MW,110.0,22.659,90.3364,Gas,2030.0,164689383.0,Developing
993,BGD,Bangladesh,Summit Bibiana-2,341.0,24.6358,91.6587,Gas,2030.0,164689383.0,Developing
994,BGD,Bangladesh,Summit Power  Comilla,25.0,23.44,91.1869,Gas,2030.0,164689383.0,Developing
995,BGD,Bangladesh,Summit Power  Maona,33.0,24.2276,90.4201,Gas,2030.0,164689383.0,Developing
996,BGD,Bangladesh,Summit Power (Madhabdi+Ashulia),80.0,23.8901,90.0323,Gas,2030.0,164689383.0,Developing
997,BGD,Bangladesh,Summit Power Rupgonj,33.0,23.755,90.5496,Gas,2030.0,164689383.0,Developing
998,BGD,Bangladesh,Sylhet (Energyprima),222.0,24.9096,91.83,Gas,2030.0,164689383.0,Developing
999,BGD,Bangladesh,Teknaf,28.0,20.982,92.256,Solar,2030.0,164689383.0,Developing
1000,BGD,Bangladesh,Thakurgaon (RZ),47.0,26.0383,88.4256,Oil,2030.0,164689383.0,Developing
1001,BGD,Bangladesh,Titas(Dautkandi),52.0,23.5461,90.7779,Oil,2030.0,164689383.0,Developing
1002,BGD,Bangladesh,Tongi GT,105.0,23.897,90.4123,Gas,2030.0,164689383.0,Developing
1003,BGD,Bangladesh,Ullapara (Summit),11.0,24.3071,89.5512,Gas,2030.0,164689383.0,Developing
1004,BLR,Belarus,Bereza SDPP Thermal Power Plant Belarus,1130.0,52.4538,25.1926,Gas,6360.0,9379952.0,Developing
1005,BLR,Belarus,Blizhnyaya Rechitsa,55.0,53.64,31.55,Solar,6360.0,9379952.0,Developing
1006,BLR,Belarus,Blizhnyaya Rechitsa 2,109.0,53.625,31.6,Solar,6360.0,9379952.0,Developing
1007,BLR,Belarus,Bobruisk CHP-2 Power Plant Belarus,180.0,53.1895,29.2055,Gas,6360.0,9379952.0,Developing
1008,BLR,Belarus,Bragin EP,4.1,51.784,30.2559,Solar,6360.0,9379952.0,Developing
1009,BLR,Belarus,Brahin,18.5,51.797,30.209,Solar,6360.0,9379952.0,Developing
1010,BLR,Belarus,Chechevicy,11.3,52.92,30.85,Solar,6360.0,9379952.0,Developing
1011,BLR,Belarus,Elsk,16.3,51.77,29.155,Solar,6360.0,9379952.0,Developing
1012,BLR,Belarus,Gomel-1 CHP Power Plant Belarus,6.0,52.4141,31.0031,Gas,6360.0,9379952.0,Developing
1013,BLR,Belarus,Gomel-2 CHP Power Plant Belarus,544.0,52.4492,30.8167,Gas,6360.0,9379952.0,Developing
1014,BLR,Belarus,Grodno CHP-2 Power Plant Belarus,180.0,53.6675,23.9272,Gas,6360.0,9379952.0,Developing
1015,BLR,Belarus,Lida Power Plant Belarus,43.0,53.9011,25.291,Gas,6360.0,9379952.0,Developing
1016,BLR,Belarus,Lukoml Thermal Power Plant Belarus,2460.0,54.6803,29.1341,Gas,6360.0,9379952.0,Developing
1017,BLR,Belarus,Minsk-3 CHP CCGT Power Plant,542.0,53.8799,27.6476,Gas,6360.0,9379952.0,Developing
1018,BLR,Belarus,Minsk-4 CHP CCGT Power Plant,1035.0,53.872,27.4022,Gas,6360.0,9379952.0,Developing
1019,BLR,Belarus,Minsk-5 CHP CCGT Power Plant,780.0,53.612,27.954,Gas,6360.0,9379952.0,Developing
1020,BLR,Belarus,Mogilev CHP-2 Thermal Power Plant Ukraine,345.0,53.8128,30.3421,Gas,6360.0,9379952.0,Developing
1021,BLR,Belarus,Mozyr Thermal Power Plant Belarus,195.0,51.9049,29.3136,Gas,6360.0,9379952.0,Developing
1022,BLR,Belarus,Novopolotsk Thermal Power Plant Belarus,505.0,55.5265,28.549,Gas,6360.0,9379952.0,Developing
1023,BLR,Belarus,Orsha Cogeneration CCGT Power Plant Belarus,73.0,54.4809,30.3926,Gas,6360.0,9379952.0,Developing
1024,BLR,Belarus,Smorgon,18.7,54.41,26.48,Solar,6360.0,9379952.0,Developing
1025,BLR,Belarus,Svetlogorsk CHP Power Plant Belarus,155.0,52.6274,29.7708,Gas,6360.0,9379952.0,Developing
1026,BLR,Belarus,Vitebsk Thermal Power Plant Belarus,75.0,55.1689,30.1355,Gas,6360.0,9379952.0,Developing
1027,BLR,Belarus,Zhodino CHP CCGT Power Plant,54.0,54.0941,28.3505,Gas,6360.0,9379952.0,Developing
1028,BEL,Belgium,AALTER TJ,18.6,51.0902,3.4469,Oil,45750.0,11555997.0,Developed
1029,BEL,Belgium,ANGLEUR TG 41,128.0,50.6177,5.5837,Gas,45750.0,11555997.0,Developed
1030,BEL,Belgium,AWIRS 4,95.0,50.5851,5.418,Biomass,45750.0,11555997.0,Developed
1031,BEL,Belgium,Aalst Syral GT,43.0,50.936,4.0355,Gas,45750.0,11555997.0,Developed
1032,BEL,Belgium,Aalst Syral ST,5.0,50.936,4.0355,Gas,45750.0,11555997.0,Developed
1033,BEL,Belgium,Amercoeur 1 R TGV,451.0,50.4304,4.3955,Gas,45750.0,11555997.0,Developed
1034,BEL,Belgium,Aspiravi Wuustwezel,22.1,51.2488,3.2166,Wind,45750.0,11555997.0,Developed
1035,BEL,Belgium,BEERSE TJ,33.2,51.3193,4.853,Oil,45750.0,11555997.0,Developed
1036,BEL,Belgium,BUDA TJ,18.6,50.9079,4.4155,Oil,45750.0,11555997.0,Developed
1037,BEL,Belgium,BUTGENBACH,1.8,50.4359,6.2106,Hydro,45750.0,11555997.0,Developed
1038,BEL,Belgium,Belwind Phase 1,171.0,51.66,2.8,Wind,45750.0,11555997.0,Developed
1039,BEL,Belgium,Beveren 2 Indaver,20.0,51.2119,4.2563,Waste,45750.0,11555997.0,Developed
1040,BEL,Belgium,Beveren Ineos Phenolchemie,22.8,51.2119,4.2563,Gas,45750.0,11555997.0,Developed
1041,BEL,Belgium,CIERREUX TJ,18.6,50.2444,5.9302,Oil,45750.0,11555997.0,Developed
1042,BEL,Belgium,COO,1164.0,50.3849,5.8618,Hydro,45750.0,11555997.0,Developed
1043,BEL,Belgium,DOEL 4,2910.0,51.3254,4.2597,Nuclear,45750.0,11555997.0,Developed
1044,BEL,Belgium,DROGENBOS DM 51,5.0,50.8023,4.299,Gas,45750.0,11555997.0,Developed
1045,BEL,Belgium,DROGENBOS GT0,48.0,50.8023,4.299,Gas,45750.0,11555997.0,Developed
1046,BEL,Belgium,DROGENBOS TGV,465.0,50.8023,4.299,Gas,45750.0,11555997.0,Developed
1047,BEL,Belgium,Deux-Acren TJ,18.6,50.7303,3.8531,Oil,45750.0,11555997.0,Developed
1048,BEL,Belgium,Electrawinds biomassa Oostende,17.9,51.2234,2.9119,Waste,45750.0,11555997.0,Developed
1049,BEL,Belgium,Froidchapelle Wind,25.0,50.2233,4.32,Wind,45750.0,11555997.0,Developed
1050,BEL,Belgium,HAM-GENT WKK,52.0,51.05,3.7167,Gas,45750.0,11555997.0,Developed
1051,BEL,Belgium,HEID-DE-GOREUX 1,8.0,50.426,5.7328,Hydro,45750.0,11555997.0,Developed
1052,BEL,Belgium,HERDERSBRUG STEG,465.0,51.2629,3.2112,Gas,45750.0,11555997.0,Developed
1053,BEL,Belgium,HERDERSBRUG WIND,3.0,51.2622,3.2132,Wind,45750.0,11555997.0,Developed
1054,BEL,Belgium,HU AMPSIN-NEUVILLE,9.9,50.5335,5.2962,Hydro,45750.0,11555997.0,Developed
1055,BEL,Belgium,HU ANDENNE,9.0,50.4928,5.07,Hydro,45750.0,11555997.0,Developed
1056,BEL,Belgium,HU GRAND-MALADES,5.0,50.4665,4.8992,Hydro,45750.0,11555997.0,Developed
1057,BEL,Belgium,HU IVOZ-RAMET,10.0,50.5922,5.4613,Hydro,45750.0,11555997.0,Developed
1058,BEL,Belgium,HU LIXHE,20.0,50.7517,5.6863,Hydro,45750.0,11555997.0,Developed
1059,BEL,Belgium,HU MONSIN,19.7,50.6517,5.6308,Hydro,45750.0,11555997.0,Developed
1060,BEL,Belgium,INESCO WKK,138.0,51.2198,4.3266,Gas,45750.0,11555997.0,Developed
1061,BEL,Belgium,IVBO,16.0,51.2089,3.2242,Waste,45750.0,11555997.0,Developed
1062,BEL,Belgium,Incinerateur THUMAIDE (IPALLE),32.0,50.5415,3.6301,Waste,45750.0,11555997.0,Developed
1063,BEL,Belgium,Intradel Herstal,32.0,50.6642,5.6235,Waste,45750.0,11555997.0,Developed
1064,BEL,Belgium,Kristal,99.5,51.203,5.265,Solar,45750.0,11555997.0,Developed
1065,BEL,Belgium,LANGERBRUGGE STORA ST 2,50.0,51.05,3.7167,Waste,45750.0,11555997.0,Developed
1066,BEL,Belgium,LANGERLO 1,470.0,50.9405,5.4906,Coal,45750.0,11555997.0,Developed
1067,BEL,Belgium,LANGERLO 4 REPOWERING,86.0,50.934,5.4784,Gas,45750.0,11555997.0,Developed
1068,BEL,Belgium,La Vierre,1.9,49.733,5.377,Hydro,45750.0,11555997.0,Developed
1069,BEL,Belgium,Loghidden City,13.0,51.273,4.288,Solar,45750.0,11555997.0,Developed
1070,BEL,Belgium,Marcinelle Energie (Carsid),405.0,50.4138,4.4067,Gas,45750.0,11555997.0,Developed
1071,BEL,Belgium,Noordschote TJ,18.6,50.9548,2.8103,Oil,45750.0,11555997.0,Developed
1072,BEL,Belgium,Northwind,216.0,51.6186,2.8998,Wind,45750.0,11555997.0,Developed
1073,BEL,Belgium,PLATE TAILLE T,144.0,50.1884,4.3861,Hydro,45750.0,11555997.0,Developed
1074,BEL,Belgium,RINGVAART STEG,357.0,51.1049,3.7257,Gas,45750.0,11555997.0,Developed
1075,BEL,Belgium,RODENHUIZE 4,268.0,51.1341,3.777,Biomass,45750.0,11555997.0,Developed
1076,BEL,Belgium,RODENHUIZE WIND,4.5,51.1357,3.7878,Wind,45750.0,11555997.0,Developed
1077,BEL,Belgium,SAINT-GHISLAIN STEG,350.0,50.4719,3.8248,Gas,45750.0,11555997.0,Developed
1078,BEL,Belgium,SCHELLE WIND,4.5,51.1265,4.3226,Wind,45750.0,11555997.0,Developed
1079,BEL,Belgium,Schaerbeek Siomab ST1,45.0,50.8504,4.3488,Waste,45750.0,11555997.0,Developed
1080,BEL,Belgium,T-power Beringen,422.0,51.0586,5.1056,Gas,45750.0,11555997.0,Developed
1081,BEL,Belgium,TIHANGE 1N,962.0,50.5342,5.2751,Nuclear,45750.0,11555997.0,Developed
1082,BEL,Belgium,TIHANGE 3,2053.8,50.5342,5.2751,Nuclear,45750.0,11555997.0,Developed
1083,BEL,Belgium,Thorntonbank - C-Power - Area NE,147.6,51.556,2.9689,Wind,45750.0,11555997.0,Developed
1084,BEL,Belgium,Thorntonbank - C-Power - Area SW,177.6,51.54,2.921,Wind,45750.0,11555997.0,Developed
1085,BEL,Belgium,WM Park Powerport Zeebrugge,12.0,51.329,3.1819,Wind,45750.0,11555997.0,Developed
1086,BEL,Belgium,Wilmarsdonk,3.7,51.2709,4.3812,Solar,45750.0,11555997.0,Developed
1087,BEL,Belgium,Wilrijk Isvag,10.5,51.1673,4.3951,Waste,45750.0,11555997.0,Developed
1088,BEL,Belgium,Windvision Estinnes WIND,80.0,50.4116,4.0804,Wind,45750.0,11555997.0,Developed
1089,BEL,Belgium,ZEEBRUGGE WIND,12.0,51.3596,3.2219,Wind,45750.0,11555997.0,Developed
1090,BEL,Belgium,Zedelgem TJ,18.6,51.1424,3.1368,Oil,45750.0,11555997.0,Developed
1091,BEL,Belgium,Zeebrugge 2 Fluxys,40.0,51.329,3.1819,Gas,45750.0,11555997.0,Developed
1092,BEL,Belgium,Zeebrugge TJ,18.6,51.329,3.1819,Oil,45750.0,11555997.0,Developed
1093,BEL,Belgium,Zelzate 2 Knippegroen,315.0,51.1587,3.8068,Gas,45750.0,11555997.0,Developed
1094,BEL,Belgium,Zelzate TJ,18.6,51.1896,3.8078,Oil,45750.0,11555997.0,Developed
1095,BEL,Belgium,Zwijndrecht Lanxess GT,43.0,51.2382,4.3408,Gas,45750.0,11555997.0,Developed
1096,BEL,Belgium,Zwijndrecht Lanxess ST,15.0,51.2382,4.3408,Gas,45750.0,11555997.0,Developed
1097,BEN,Benin,Akpakpa,40.5,6.3506,2.4295,Gas,1280.0,12123198.0,Developing
1098,BEN,Benin,Cotonou,20.0,6.4263,2.3066,Oil,1280.0,12123198.0,Developing
1099,BTN,Bhutan,Basochhu Hydroelectric Power Plant Bhutan,64.0,27.4254,89.9043,Hydro,2840.0,771612.0,Developing
1100,BTN,Bhutan,Chhukha Hydroelectric Power Plant Bhutan,336.0,27.1104,89.5313,Hydro,2840.0,771612.0,Developing
1101,BTN,Bhutan,Kurichhu Hydro-electric Power Station Bhutan,60.0,27.2162,91.2035,Hydro,2840.0,771612.0,Developing
1102,BTN,Bhutan,Rangjung Small Hydroelectric Power Plant Bhutan,2.2,27.3567,91.6497,Hydro,2840.0,771612.0,Developing
1103,BTN,Bhutan,Tala Hydroelectric Power Plant Bhutan,1020.0,27.036,89.5953,Hydro,2840.0,771612.0,Developing
1104,BOL,Bolivia,Aranjuez Power Plant Bolivia,36.7,-19.0394,-65.2697,Gas,3180.0,11673029.0,Developing
1105,BOL,Bolivia,Botijlaca Hydroelectric Power Plant Bolivia,10.6,-16.1925,-68.1405,Hydro,3180.0,11673029.0,Developing
1106,BOL,Bolivia,Bulo Bulo OCGT Power Plant Bolivia,90.0,-17.2424,-64.5409,Gas,3180.0,11673029.0,Developing
1107,BOL,Bolivia,Cahua Hydroelectric Power Plant Bolivia,30.0,-16.0456,-67.9939,Hydro,3180.0,11673029.0,Developing
1108,BOL,Bolivia,Carrasco OCGT Power Plant Bolivia,152.6,-17.2125,-64.5275,Gas,3180.0,11673029.0,Developing
1109,BOL,Bolivia,Chojlla Hydroelectric Power Plant Bolivia,38.4,-16.4124,-67.7725,Hydro,3180.0,11673029.0,Developing
1110,BOL,Bolivia,Chururaqui Hydroelectric Power Plant Bolivia,34.0,-16.105,-68.067,Hydro,3180.0,11673029.0,Developing
1111,BOL,Bolivia,Cobija,5.0,-11.025,-68.815,Solar,3180.0,11673029.0,Developing
1112,BOL,Bolivia,Corani Hydroelectric Power Plant Bolivia,54.0,-17.2122,-65.8758,Hydro,3180.0,11673029.0,Developing
1113,BOL,Bolivia,Cutichucho Hydroelectric Power Plant Bolivia,24.0,-16.1425,-68.1158,Hydro,3180.0,11673029.0,Developing
